[{"id":1,"name":"Biscuiterie","departement_id":1,"code":null,"lat":14.7203,"lon":-17.4617,"elevation":36,"created_at":"2026-03-04 05:31:14.892+00","updated_at":"2026-03-04 05:31:14.892+00"},{"id":2,"name":"Cambérène","departement_id":1,"code":null,"lat":14.7617,"lon":-17.4286,"elevation":16,"created_at":"2026-03-04 05:31:14.988+00","updated_at":"2026-03-04 05:31:14.988+00"},{"id":3,"name":"Dakar Plateau","departement_id":1,"code":null,"lat":14.6928,"lon":-17.4467,"elevation":19,"created_at":"2026-03-04 05:31:15.083+00","updated_at":"2026-03-04 05:31:15.084+00"},{"id":4,"name":"Dieuppeul Derklé","departement_id":1,"code":null,"lat":14.7128,"lon":-17.4578,"elevation":29,"created_at":"2026-03-04 05:31:15.174+00","updated_at":"2026-03-04 05:31:15.174+00"},{"id":5,"name":"Fann Point E Amitie","departement_id":1,"code":null,"lat":14.6967,"lon":-17.4667,"elevation":21,"created_at":"2026-03-04 05:31:15.271+00","updated_at":"2026-03-04 05:31:15.271+00"},{"id":6,"name":"Gorée","departement_id":1,"code":null,"lat":14.6667,"lon":-17.4,"elevation":1,"created_at":"2026-03-04 05:31:15.37+00","updated_at":"2026-03-04 05:31:15.37+00"},{"id":7,"name":"Grand Dakar","departement_id":1,"code":null,"lat":14.7236,"lon":-17.4456,"elevation":21,"created_at":"2026-03-04 05:31:15.475+00","updated_at":"2026-03-04 05:31:15.475+00"},{"id":8,"name":"Grand Yoff","departement_id":1,"code":null,"lat":14.7467,"lon":-17.4447,"elevation":16,"created_at":"2026-03-04 05:31:15.579+00","updated_at":"2026-03-04 05:31:15.579+00"},{"id":9,"name":"Gueule Tapee Fass Colobane","departement_id":1,"code":null,"lat":14.7028,"lon":-17.45,"elevation":14,"created_at":"2026-03-04 05:31:15.713+00","updated_at":"2026-03-04 05:31:15.713+00"},{"id":10,"name":"Hann Bel-Air","departement_id":1,"code":null,"lat":14.7289,"lon":-17.41,"elevation":0,"created_at":"2026-03-04 05:31:15.806+00","updated_at":"2026-03-04 05:31:15.806+00"},{"id":11,"name":"Hlm","departement_id":1,"code":null,"lat":14.7178,"lon":-17.4553,"elevation":30,"created_at":"2026-03-04 05:31:15.905+00","updated_at":"2026-03-04 05:31:15.905+00"},{"id":12,"name":"Medina","departement_id":1,"code":null,"lat":14.7,"lon":-17.45,"elevation":13,"created_at":"2026-03-04 05:31:16.002+00","updated_at":"2026-03-04 05:31:16.002+00"},{"id":13,"name":"Mermoz Sacre Coeur","departement_id":1,"code":null,"lat":14.7317,"lon":-17.4617,"elevation":40,"created_at":"2026-03-04 05:31:16.095+00","updated_at":"2026-03-04 05:31:16.095+00"},{"id":14,"name":"Ngor","departement_id":1,"code":null,"lat":14.7567,"lon":-17.5133,"elevation":11,"created_at":"2026-03-04 05:31:16.195+00","updated_at":"2026-03-04 05:31:16.195+00"},{"id":15,"name":"Ouakam","departement_id":1,"code":null,"lat":14.7417,"lon":-17.4983,"elevation":22,"created_at":"2026-03-04 05:31:16.313+00","updated_at":"2026-03-04 05:31:16.313+00"},{"id":16,"name":"Parcelles Assainies","departement_id":1,"code":null,"lat":14.7689,"lon":-17.43,"elevation":11,"created_at":"2026-03-04 05:31:16.427+00","updated_at":"2026-03-04 05:31:16.427+00"},{"id":17,"name":"Patte D'Oie","departement_id":1,"code":null,"lat":14.725,"lon":-17.4678,"elevation":37,"created_at":"2026-03-04 05:31:16.528+00","updated_at":"2026-03-04 05:31:16.528+00"},{"id":18,"name":"Sicap Liberté","departement_id":1,"code":null,"lat":14.72,"lon":-17.4556,"elevation":24,"created_at":"2026-03-04 05:31:16.623+00","updated_at":"2026-03-04 05:31:16.623+00"},{"id":19,"name":"Yoff","departement_id":1,"code":null,"lat":14.7667,"lon":-17.4933,"elevation":0,"created_at":"2026-03-04 05:31:16.718+00","updated_at":"2026-03-04 05:31:16.718+00"},{"id":20,"name":"Golf Sud","departement_id":2,"code":null,"lat":14.7878,"lon":-17.4047,"elevation":0,"created_at":"2026-03-04 05:31:16.917+00","updated_at":"2026-03-04 05:31:16.917+00"},{"id":21,"name":"Medina Gounass","departement_id":2,"code":null,"lat":14.7933,"lon":-17.3994,"elevation":0,"created_at":"2026-03-04 05:31:17.176+00","updated_at":"2026-03-04 05:31:17.176+00"},{"id":22,"name":"Ndiareme Limamoulaye","departement_id":2,"code":null,"lat":14.7867,"lon":-17.39,"elevation":8,"created_at":"2026-03-04 05:31:17.284+00","updated_at":"2026-03-04 05:31:17.284+00"},{"id":23,"name":"Sam Notaire","departement_id":2,"code":null,"lat":14.7933,"lon":-17.4033,"elevation":0,"created_at":"2026-03-04 05:31:17.404+00","updated_at":"2026-03-04 05:31:17.404+00"},{"id":24,"name":"Wakhinane Nimzatt","departement_id":2,"code":null,"lat":14.7956,"lon":-17.3967,"elevation":0,"created_at":"2026-03-04 05:31:17.61+00","updated_at":"2026-03-04 05:31:17.61+00"},{"id":25,"name":"Jaxaay Parcelles","departement_id":3,"code":null,"lat":14.8133,"lon":-17.3456,"elevation":0,"created_at":"2026-03-04 05:31:17.792+00","updated_at":"2026-03-04 05:31:17.792+00"},{"id":26,"name":"Keur Massar Nord","departement_id":3,"code":null,"lat":14.8156,"lon":-17.3333,"elevation":0,"created_at":"2026-03-04 05:31:17.884+00","updated_at":"2026-03-04 05:31:17.884+00"},{"id":27,"name":"Keur Massar Sud","departement_id":3,"code":null,"lat":14.8056,"lon":-17.3356,"elevation":9,"created_at":"2026-03-04 05:31:17.976+00","updated_at":"2026-03-04 05:31:17.976+00"},{"id":28,"name":"Malika","departement_id":3,"code":null,"lat":14.8167,"lon":-17.3167,"elevation":0,"created_at":"2026-03-04 05:31:18.069+00","updated_at":"2026-03-04 05:31:18.069+00"},{"id":29,"name":"Yeumbeul Nord","departement_id":3,"code":null,"lat":14.7989,"lon":-17.3667,"elevation":3,"created_at":"2026-03-04 05:31:18.18+00","updated_at":"2026-03-04 05:31:18.18+00"},{"id":30,"name":"Yeumbeul Sud","departement_id":3,"code":null,"lat":14.79,"lon":-17.37,"elevation":9,"created_at":"2026-03-04 05:31:18.268+00","updated_at":"2026-03-04 05:31:18.268+00"},{"id":31,"name":"Dalifort","departement_id":4,"code":null,"lat":14.76,"lon":-17.3933,"elevation":15,"created_at":"2026-03-04 05:31:18.453+00","updated_at":"2026-03-04 05:31:18.453+00"},{"id":32,"name":"Diameguene Sicap Mbao","departement_id":4,"code":null,"lat":14.765,"lon":-17.365,"elevation":18,"created_at":"2026-03-04 05:31:18.544+00","updated_at":"2026-03-04 05:31:18.544+00"},{"id":33,"name":"Djidah Thiaroye Kao","departement_id":4,"code":null,"lat":14.7533,"lon":-17.39,"elevation":11,"created_at":"2026-03-04 05:31:18.632+00","updated_at":"2026-03-04 05:31:18.632+00"},{"id":34,"name":"Guinaw Rail Nord","departement_id":4,"code":null,"lat":14.77,"lon":-17.395,"elevation":15,"created_at":"2026-03-04 05:31:18.724+00","updated_at":"2026-03-04 05:31:18.724+00"},{"id":35,"name":"Guinaw Rail Sud","departement_id":4,"code":null,"lat":14.765,"lon":-17.3967,"elevation":15,"created_at":"2026-03-04 05:31:18.816+00","updated_at":"2026-03-04 05:31:18.816+00"},{"id":36,"name":"Mbao","departement_id":4,"code":null,"lat":14.7567,"lon":-17.3433,"elevation":9,"created_at":"2026-03-04 05:31:18.903+00","updated_at":"2026-03-04 05:31:18.903+00"},{"id":37,"name":"Pikine Est","departement_id":4,"code":null,"lat":14.7678,"lon":-17.4006,"elevation":7,"created_at":"2026-03-04 05:31:18.992+00","updated_at":"2026-03-04 05:31:18.992+00"},{"id":38,"name":"Pikine Nord","departement_id":4,"code":null,"lat":14.775,"lon":-17.4067,"elevation":13,"created_at":"2026-03-04 05:31:19.089+00","updated_at":"2026-03-04 05:31:19.089+00"},{"id":39,"name":"Pikine Ouest","departement_id":4,"code":null,"lat":14.77,"lon":-17.4133,"elevation":13,"created_at":"2026-03-04 05:31:19.182+00","updated_at":"2026-03-04 05:31:19.182+00"},{"id":40,"name":"Thiaroye Gare","departement_id":4,"code":null,"lat":14.7578,"lon":-17.3917,"elevation":16,"created_at":"2026-03-04 05:31:19.274+00","updated_at":"2026-03-04 05:31:19.274+00"},{"id":41,"name":"Thiaroye Sur Mer","departement_id":4,"code":null,"lat":14.75,"lon":-17.3833,"elevation":8,"created_at":"2026-03-04 05:31:19.364+00","updated_at":"2026-03-04 05:31:19.364+00"},{"id":42,"name":"Tivaouane Diacksao","departement_id":4,"code":null,"lat":14.7833,"lon":-17.4,"elevation":6,"created_at":"2026-03-04 05:31:19.453+00","updated_at":"2026-03-04 05:31:19.453+00"},{"id":43,"name":"Bambilor","departement_id":5,"code":null,"lat":14.8,"lon":-17.27,"elevation":10,"created_at":"2026-03-04 05:31:19.637+00","updated_at":"2026-03-04 05:31:19.637+00"},{"id":44,"name":"Bargny","departement_id":5,"code":null,"lat":14.6933,"lon":-17.2283,"elevation":12,"created_at":"2026-03-04 05:31:19.728+00","updated_at":"2026-03-04 05:31:19.728+00"},{"id":45,"name":"Diamniadio","departement_id":5,"code":null,"lat":14.73,"lon":-17.18,"elevation":18,"created_at":"2026-03-04 05:31:19.82+00","updated_at":"2026-03-04 05:31:19.82+00"},{"id":46,"name":"Rufisque Est","departement_id":5,"code":null,"lat":14.7133,"lon":-17.2633,"elevation":8,"created_at":"2026-03-04 05:31:19.908+00","updated_at":"2026-03-04 05:31:19.908+00"},{"id":47,"name":"Rufisque Nord","departement_id":5,"code":null,"lat":14.7167,"lon":-17.2717,"elevation":8,"created_at":"2026-03-04 05:31:20.001+00","updated_at":"2026-03-04 05:31:20.001+00"},{"id":48,"name":"Rufisque Ouest","departement_id":5,"code":null,"lat":14.71,"lon":-17.275,"elevation":0,"created_at":"2026-03-04 05:31:20.094+00","updated_at":"2026-03-04 05:31:20.094+00"},{"id":49,"name":"Sangalkam","departement_id":5,"code":null,"lat":14.7667,"lon":-17.2333,"elevation":21,"created_at":"2026-03-04 05:31:20.185+00","updated_at":"2026-03-04 05:31:20.185+00"},{"id":50,"name":"Sendou","departement_id":5,"code":null,"lat":14.67,"lon":-17.2,"elevation":6,"created_at":"2026-03-04 05:31:20.364+00","updated_at":"2026-03-04 05:31:20.364+00"},{"id":51,"name":"Sébikotane","departement_id":5,"code":null,"lat":14.75,"lon":-17.15,"elevation":19,"created_at":"2026-03-04 05:31:20.276+00","updated_at":"2026-03-04 05:31:20.276+00"},{"id":52,"name":"Tivaouane Peulh Niagha","departement_id":5,"code":null,"lat":14.8133,"lon":-17.2833,"elevation":9,"created_at":"2026-03-04 05:31:20.456+00","updated_at":"2026-03-04 05:31:20.456+00"},{"id":53,"name":"Yène","departement_id":5,"code":null,"lat":14.66,"lon":-17.1833,"elevation":7,"created_at":"2026-03-04 05:31:20.553+00","updated_at":"2026-03-04 05:31:20.553+00"},{"id":54,"name":"Baba Garage","departement_id":6,"code":null,"lat":14.8667,"lon":-15.85,"elevation":43,"created_at":"2026-03-04 05:31:20.83+00","updated_at":"2026-03-04 05:31:20.83+00"},{"id":55,"name":"Bambey","departement_id":6,"code":null,"lat":14.7,"lon":-16.45,"elevation":22,"created_at":"2026-03-04 05:31:20.921+00","updated_at":"2026-03-04 05:31:20.921+00"},{"id":56,"name":"Dinguiraye","departement_id":6,"code":null,"lat":14.6167,"lon":-16.75,"elevation":19,"created_at":"2026-03-04 05:31:21.012+00","updated_at":"2026-03-04 05:31:21.012+00"},{"id":57,"name":"Gawane","departement_id":6,"code":null,"lat":14.8,"lon":-16.3667,"elevation":23,"created_at":"2026-03-04 05:31:21.105+00","updated_at":"2026-03-04 05:31:21.105+00"},{"id":58,"name":"Keur Samba Kane","departement_id":6,"code":null,"lat":14.7833,"lon":-16.3833,"elevation":22,"created_at":"2026-03-04 05:31:21.204+00","updated_at":"2026-03-04 05:31:21.204+00"},{"id":59,"name":"Lambaye","departement_id":6,"code":null,"lat":14.8333,"lon":-16.4167,"elevation":37,"created_at":"2026-03-04 05:31:21.3+00","updated_at":"2026-03-04 05:31:21.3+00"},{"id":60,"name":"Ndangalma","departement_id":6,"code":null,"lat":14.9167,"lon":-16.4167,"elevation":34,"created_at":"2026-03-04 05:31:21.397+00","updated_at":"2026-03-04 05:31:21.397+00"},{"id":61,"name":"Ndondol","departement_id":6,"code":null,"lat":14.8,"lon":-16.5,"elevation":25,"created_at":"2026-03-04 05:31:21.488+00","updated_at":"2026-03-04 05:31:21.488+00"},{"id":62,"name":"Ngogom","departement_id":6,"code":null,"lat":14.8667,"lon":-16.45,"elevation":33,"created_at":"2026-03-04 05:31:21.58+00","updated_at":"2026-03-04 05:31:21.58+00"},{"id":63,"name":"Ngoye","departement_id":6,"code":null,"lat":14.7333,"lon":-16.5667,"elevation":21,"created_at":"2026-03-04 05:31:21.684+00","updated_at":"2026-03-04 05:31:21.684+00"},{"id":64,"name":"Réfane","departement_id":6,"code":null,"lat":14.75,"lon":-16.4833,"elevation":16,"created_at":"2026-03-04 05:31:21.776+00","updated_at":"2026-03-04 05:31:21.777+00"},{"id":65,"name":"Thiakhar","departement_id":6,"code":null,"lat":14.8,"lon":-16.4,"elevation":26,"created_at":"2026-03-04 05:31:21.871+00","updated_at":"2026-03-04 05:31:21.871+00"},{"id":66,"name":"Diourbel","departement_id":7,"code":null,"lat":14.65,"lon":-16.2333,"elevation":8,"created_at":"2026-03-04 05:31:22.052+00","updated_at":"2026-03-04 05:31:22.052+00"},{"id":67,"name":"Gade Escale","departement_id":7,"code":null,"lat":14.7,"lon":-16.1667,"elevation":24,"created_at":"2026-03-04 05:31:22.142+00","updated_at":"2026-03-04 05:31:22.142+00"},{"id":68,"name":"Keur Ngalgou","departement_id":7,"code":null,"lat":14.6167,"lon":-16.35,"elevation":15,"created_at":"2026-03-04 05:31:22.233+00","updated_at":"2026-03-04 05:31:22.233+00"},{"id":69,"name":"Ndankh Sene","departement_id":7,"code":null,"lat":14.7,"lon":-16.25,"elevation":17,"created_at":"2026-03-04 05:31:22.329+00","updated_at":"2026-03-04 05:31:22.329+00"},{"id":70,"name":"Ndindy","departement_id":7,"code":null,"lat":14.6333,"lon":-16.3,"elevation":12,"created_at":"2026-03-04 05:31:22.42+00","updated_at":"2026-03-04 05:31:22.42+00"},{"id":71,"name":"Ndoulo","departement_id":7,"code":null,"lat":14.7167,"lon":-16.1833,"elevation":13,"created_at":"2026-03-04 05:31:22.513+00","updated_at":"2026-03-04 05:31:22.513+00"},{"id":72,"name":"Ngohé","departement_id":7,"code":null,"lat":14.6833,"lon":-16.2,"elevation":18,"created_at":"2026-03-04 05:31:22.617+00","updated_at":"2026-03-04 05:31:22.617+00"},{"id":73,"name":"Pattar","departement_id":7,"code":null,"lat":14.75,"lon":-16.2667,"elevation":15,"created_at":"2026-03-04 05:31:22.708+00","updated_at":"2026-03-04 05:31:22.708+00"},{"id":74,"name":"Taiba Moutoupha","departement_id":7,"code":null,"lat":14.7833,"lon":-16.2333,"elevation":24,"created_at":"2026-03-04 05:31:22.804+00","updated_at":"2026-03-04 05:31:22.804+00"},{"id":75,"name":"Tocky-Gare","departement_id":7,"code":null,"lat":14.65,"lon":-16.1833,"elevation":12,"created_at":"2026-03-04 05:31:22.893+00","updated_at":"2026-03-04 05:31:22.893+00"},{"id":76,"name":"Touba Lappé","departement_id":7,"code":null,"lat":14.9,"lon":-16.2167,"elevation":27,"created_at":"2026-03-04 05:31:22.985+00","updated_at":"2026-03-04 05:31:22.985+00"},{"id":77,"name":"Toure Mbonde","departement_id":7,"code":null,"lat":14.8333,"lon":-16.2833,"elevation":19,"created_at":"2026-03-04 05:31:23.078+00","updated_at":"2026-03-04 05:31:23.078+00"},{"id":78,"name":"Dalla Ngabou","departement_id":8,"code":null,"lat":14.95,"lon":-15.95,"elevation":28,"created_at":"2026-03-04 05:31:23.26+00","updated_at":"2026-03-04 05:31:23.261+00"},{"id":79,"name":"Darou Nahim","departement_id":8,"code":null,"lat":14.9167,"lon":-15.9167,"elevation":44,"created_at":"2026-03-04 05:31:23.353+00","updated_at":"2026-03-04 05:31:23.353+00"},{"id":80,"name":"Darou Salam Typ","departement_id":8,"code":null,"lat":14.8833,"lon":-15.8833,"elevation":49,"created_at":"2026-03-04 05:31:23.453+00","updated_at":"2026-03-04 05:31:23.453+00"},{"id":81,"name":"Dendeye Gouy-Gui","departement_id":8,"code":null,"lat":14.9333,"lon":-16,"elevation":39,"created_at":"2026-03-04 05:31:23.545+00","updated_at":"2026-03-04 05:31:23.545+00"},{"id":82,"name":"Kael","departement_id":8,"code":null,"lat":14.9,"lon":-15.9,"elevation":45,"created_at":"2026-03-04 05:31:23.637+00","updated_at":"2026-03-04 05:31:23.637+00"},{"id":83,"name":"Madina","departement_id":8,"code":null,"lat":14.7833,"lon":-16,"elevation":36,"created_at":"2026-03-04 05:31:23.728+00","updated_at":"2026-03-04 05:31:23.728+00"},{"id":84,"name":"Mbacké","departement_id":8,"code":null,"lat":14.7833,"lon":-15.9167,"elevation":40,"created_at":"2026-03-04 05:31:23.816+00","updated_at":"2026-03-04 05:31:23.817+00"},{"id":85,"name":"Missirah","departement_id":8,"code":null,"lat":14.8667,"lon":-16.0833,"elevation":36,"created_at":"2026-03-04 05:31:23.912+00","updated_at":"2026-03-04 05:31:23.912+00"},{"id":86,"name":"Ndioumane","departement_id":8,"code":null,"lat":14.85,"lon":-15.9667,"elevation":38,"created_at":"2026-03-04 05:31:24.004+00","updated_at":"2026-03-04 05:31:24.004+00"},{"id":87,"name":"Nghaye","departement_id":8,"code":null,"lat":14.8167,"lon":-16.0333,"elevation":47,"created_at":"2026-03-04 05:31:24.097+00","updated_at":"2026-03-04 05:31:24.097+00"},{"id":88,"name":"Sadio","departement_id":8,"code":null,"lat":14.9167,"lon":-16.0833,"elevation":35,"created_at":"2026-03-04 05:31:24.189+00","updated_at":"2026-03-04 05:31:24.189+00"},{"id":89,"name":"Taiba Thiékéne","departement_id":8,"code":null,"lat":14.95,"lon":-16.0667,"elevation":32,"created_at":"2026-03-04 05:31:24.281+00","updated_at":"2026-03-04 05:31:24.281+00"},{"id":90,"name":"Taïf","departement_id":8,"code":null,"lat":14.85,"lon":-16.0167,"elevation":25,"created_at":"2026-03-04 05:31:24.372+00","updated_at":"2026-03-04 05:31:24.372+00"},{"id":91,"name":"Touba Fall","departement_id":8,"code":null,"lat":14.85,"lon":-15.8833,"elevation":55,"created_at":"2026-03-04 05:31:24.483+00","updated_at":"2026-03-04 05:31:24.483+00"},{"id":92,"name":"Touba Mboul","departement_id":8,"code":null,"lat":14.8333,"lon":-15.9,"elevation":36,"created_at":"2026-03-04 05:31:24.572+00","updated_at":"2026-03-04 05:31:24.572+00"},{"id":93,"name":"Touba Mosquée","departement_id":8,"code":null,"lat":14.85,"lon":-15.8833,"elevation":55,"created_at":"2026-03-04 05:31:24.664+00","updated_at":"2026-03-04 05:31:24.664+00"},{"id":94,"name":"Diakhao","departement_id":9,"code":null,"lat":14.2333,"lon":-16.5,"elevation":0,"created_at":"2026-03-04 05:31:24.956+00","updated_at":"2026-03-04 05:31:24.956+00"},{"id":95,"name":"Diaoule","departement_id":9,"code":null,"lat":14.2,"lon":-16.55,"elevation":0,"created_at":"2026-03-04 05:31:25.052+00","updated_at":"2026-03-04 05:31:25.052+00"},{"id":96,"name":"Diarrere","departement_id":9,"code":null,"lat":14.3,"lon":-16.4,"elevation":8,"created_at":"2026-03-04 05:31:25.14+00","updated_at":"2026-03-04 05:31:25.14+00"},{"id":97,"name":"Dioffior","departement_id":9,"code":null,"lat":14.1667,"lon":-16.6,"elevation":10,"created_at":"2026-03-04 05:31:25.231+00","updated_at":"2026-03-04 05:31:25.231+00"},{"id":98,"name":"Diouroup","departement_id":9,"code":null,"lat":14.25,"lon":-16.55,"elevation":13,"created_at":"2026-03-04 05:31:25.319+00","updated_at":"2026-03-04 05:31:25.319+00"},{"id":99,"name":"Djilasse","departement_id":9,"code":null,"lat":14.1833,"lon":-16.5667,"elevation":0,"created_at":"2026-03-04 05:31:25.407+00","updated_at":"2026-03-04 05:31:25.407+00"},{"id":100,"name":"Fatick","departement_id":9,"code":null,"lat":14.3333,"lon":-16.4167,"elevation":5,"created_at":"2026-03-04 05:31:25.503+00","updated_at":"2026-03-04 05:31:25.503+00"},{"id":101,"name":"Fimela","departement_id":9,"code":null,"lat":14.2,"lon":-16.7,"elevation":12,"created_at":"2026-03-04 05:31:25.592+00","updated_at":"2026-03-04 05:31:25.592+00"},{"id":102,"name":"Loul Sessene","departement_id":9,"code":null,"lat":14.2833,"lon":-16.4833,"elevation":9,"created_at":"2026-03-04 05:31:25.68+00","updated_at":"2026-03-04 05:31:25.68+00"},{"id":103,"name":"Mbellacadiao","departement_id":9,"code":null,"lat":14.2167,"lon":-16.5167,"elevation":7,"created_at":"2026-03-04 05:31:25.772+00","updated_at":"2026-03-04 05:31:25.772+00"},{"id":104,"name":"Niakhar","departement_id":9,"code":null,"lat":14.3667,"lon":-16.35,"elevation":7,"created_at":"2026-03-04 05:31:25.864+00","updated_at":"2026-03-04 05:31:25.864+00"},{"id":105,"name":"Ndiop","departement_id":9,"code":null,"lat":14.25,"lon":-16.6,"elevation":10,"created_at":"2026-03-04 05:31:25.953+00","updated_at":"2026-03-04 05:31:25.953+00"},{"id":106,"name":"Ngayokhémé","departement_id":9,"code":null,"lat":14.3,"lon":-16.5,"elevation":7,"created_at":"2026-03-04 05:31:26.043+00","updated_at":"2026-03-04 05:31:26.043+00"},{"id":107,"name":"Palmarin Facao","departement_id":9,"code":null,"lat":14.0833,"lon":-16.7167,"elevation":15,"created_at":"2026-03-04 05:31:26.133+00","updated_at":"2026-03-04 05:31:26.133+00"},{"id":108,"name":"Patar","departement_id":9,"code":null,"lat":14.3333,"lon":-16.5667,"elevation":5,"created_at":"2026-03-04 05:31:26.23+00","updated_at":"2026-03-04 05:31:26.23+00"},{"id":109,"name":"Tattaguine","departement_id":9,"code":null,"lat":14.35,"lon":-16.3,"elevation":15,"created_at":"2026-03-04 05:31:26.323+00","updated_at":"2026-03-04 05:31:26.323+00"},{"id":110,"name":"Thiaré Ndialgui","departement_id":9,"code":null,"lat":14.3167,"lon":-16.4667,"elevation":7,"created_at":"2026-03-04 05:31:26.416+00","updated_at":"2026-03-04 05:31:26.416+00"},{"id":111,"name":"Bassoul","departement_id":10,"code":null,"lat":14.05,"lon":-16.6,"elevation":11,"created_at":"2026-03-04 05:31:26.607+00","updated_at":"2026-03-04 05:31:26.608+00"},{"id":112,"name":"Diagane Barka","departement_id":10,"code":null,"lat":14.15,"lon":-16.35,"elevation":9,"created_at":"2026-03-04 05:31:26.699+00","updated_at":"2026-03-04 05:31:26.7+00"},{"id":113,"name":"Dionewar","departement_id":10,"code":null,"lat":13.9333,"lon":-16.7,"elevation":10,"created_at":"2026-03-04 05:31:26.791+00","updated_at":"2026-03-04 05:31:26.791+00"},{"id":114,"name":"Diossong","departement_id":10,"code":null,"lat":14,"lon":-16.5167,"elevation":9,"created_at":"2026-03-04 05:31:26.88+00","updated_at":"2026-03-04 05:31:26.88+00"},{"id":115,"name":"Djilor","departement_id":10,"code":null,"lat":14.1833,"lon":-16.4,"elevation":9,"created_at":"2026-03-04 05:31:26.971+00","updated_at":"2026-03-04 05:31:26.971+00"},{"id":116,"name":"Djirnda","departement_id":10,"code":null,"lat":14.0333,"lon":-16.5,"elevation":2,"created_at":"2026-03-04 05:31:27.067+00","updated_at":"2026-03-04 05:31:27.067+00"},{"id":117,"name":"Foundiougne","departement_id":10,"code":null,"lat":14.1333,"lon":-16.4667,"elevation":0,"created_at":"2026-03-04 05:31:27.156+00","updated_at":"2026-03-04 05:31:27.156+00"},{"id":118,"name":"Karang Poste","departement_id":10,"code":null,"lat":13.6333,"lon":-16.7,"elevation":0,"created_at":"2026-03-04 05:31:27.251+00","updated_at":"2026-03-04 05:31:27.251+00"},{"id":119,"name":"Keur Saloum Diane","departement_id":10,"code":null,"lat":14.0667,"lon":-16.3,"elevation":14,"created_at":"2026-03-04 05:31:27.339+00","updated_at":"2026-03-04 05:31:27.339+00"},{"id":120,"name":"Keur Samba Gueye","departement_id":10,"code":null,"lat":14.1167,"lon":-16.5,"elevation":0,"created_at":"2026-03-04 05:31:27.428+00","updated_at":"2026-03-04 05:31:27.428+00"},{"id":121,"name":"Mbam","departement_id":10,"code":null,"lat":13.8833,"lon":-16.55,"elevation":13,"created_at":"2026-03-04 05:31:27.516+00","updated_at":"2026-03-04 05:31:27.516+00"},{"id":122,"name":"Niassene","departement_id":10,"code":null,"lat":14.1,"lon":-16.4333,"elevation":8,"created_at":"2026-03-04 05:31:27.606+00","updated_at":"2026-03-04 05:31:27.606+00"},{"id":123,"name":"Nioro Alassane Tall","departement_id":10,"code":null,"lat":14.15,"lon":-16.3,"elevation":13,"created_at":"2026-03-04 05:31:27.7+00","updated_at":"2026-03-04 05:31:27.7+00"},{"id":124,"name":"Passy","departement_id":10,"code":null,"lat":14.0833,"lon":-16.2833,"elevation":5,"created_at":"2026-03-04 05:31:27.791+00","updated_at":"2026-03-04 05:31:27.791+00"},{"id":125,"name":"Sokone","departement_id":10,"code":null,"lat":13.8833,"lon":-16.3667,"elevation":9,"created_at":"2026-03-04 05:31:27.88+00","updated_at":"2026-03-04 05:31:27.88+00"},{"id":126,"name":"Soum","departement_id":10,"code":null,"lat":13.95,"lon":-16.5167,"elevation":9,"created_at":"2026-03-04 05:31:27.971+00","updated_at":"2026-03-04 05:31:27.971+00"},{"id":127,"name":"Toubacouta","departement_id":10,"code":null,"lat":13.75,"lon":-16.5,"elevation":7,"created_at":"2026-03-04 05:31:28.06+00","updated_at":"2026-03-04 05:31:28.06+00"},{"id":128,"name":"Colobane","departement_id":11,"code":null,"lat":14.4333,"lon":-16.3833,"elevation":10,"created_at":"2026-03-04 05:31:28.239+00","updated_at":"2026-03-04 05:31:28.239+00"},{"id":129,"name":"Gossas","departement_id":11,"code":null,"lat":14.4833,"lon":-16.0667,"elevation":16,"created_at":"2026-03-04 05:31:28.334+00","updated_at":"2026-03-04 05:31:28.334+00"},{"id":130,"name":"Mbar","departement_id":11,"code":null,"lat":14.5333,"lon":-16.2333,"elevation":12,"created_at":"2026-03-04 05:31:28.423+00","updated_at":"2026-03-04 05:31:28.423+00"},{"id":131,"name":"Ndiene Lagane","departement_id":11,"code":null,"lat":14.4667,"lon":-16.2,"elevation":17,"created_at":"2026-03-04 05:31:28.511+00","updated_at":"2026-03-04 05:31:28.512+00"},{"id":132,"name":"Ouadiour","departement_id":11,"code":null,"lat":14.5,"lon":-16.1667,"elevation":12,"created_at":"2026-03-04 05:31:28.602+00","updated_at":"2026-03-04 05:31:28.602+00"},{"id":133,"name":"Patar Lia","departement_id":11,"code":null,"lat":14.4167,"lon":-16.3,"elevation":8,"created_at":"2026-03-04 05:31:28.692+00","updated_at":"2026-03-04 05:31:28.692+00"},{"id":134,"name":"Birkelane","departement_id":12,"code":null,"lat":14.0667,"lon":-15.8333,"elevation":13,"created_at":"2026-03-04 05:31:28.958+00","updated_at":"2026-03-04 05:31:28.958+00"},{"id":135,"name":"Diamal","departement_id":12,"code":null,"lat":14.0167,"lon":-15.75,"elevation":18,"created_at":"2026-03-04 05:31:29.052+00","updated_at":"2026-03-04 05:31:29.052+00"},{"id":136,"name":"Keur Mboucki","departement_id":12,"code":null,"lat":14.1167,"lon":-15.8833,"elevation":9,"created_at":"2026-03-04 05:31:29.142+00","updated_at":"2026-03-04 05:31:29.142+00"},{"id":137,"name":"Mabo","departement_id":12,"code":null,"lat":14,"lon":-15.9167,"elevation":16,"created_at":"2026-03-04 05:31:29.238+00","updated_at":"2026-03-04 05:31:29.238+00"},{"id":138,"name":"Mbeuleup","departement_id":12,"code":null,"lat":14.15,"lon":-15.9167,"elevation":15,"created_at":"2026-03-04 05:31:29.417+00","updated_at":"2026-03-04 05:31:29.418+00"},{"id":139,"name":"Ndiognick","departement_id":12,"code":null,"lat":14.05,"lon":-15.8,"elevation":14,"created_at":"2026-03-04 05:31:29.714+00","updated_at":"2026-03-04 05:31:29.714+00"},{"id":140,"name":"Ségré Gatta","departement_id":12,"code":null,"lat":14.1833,"lon":-15.8333,"elevation":21,"created_at":"2026-03-04 05:31:29.855+00","updated_at":"2026-03-04 05:31:29.855+00"},{"id":141,"name":"Touba Mbella","departement_id":12,"code":null,"lat":14.0333,"lon":-15.85,"elevation":19,"created_at":"2026-03-04 05:31:30.231+00","updated_at":"2026-03-04 05:31:30.231+00"},{"id":142,"name":"Boulel","departement_id":13,"code":null,"lat":14.0667,"lon":-14.9667,"elevation":43,"created_at":"2026-03-04 05:31:30.561+00","updated_at":"2026-03-04 05:31:30.561+00"},{"id":143,"name":"Diamagadio","departement_id":13,"code":null,"lat":14.1667,"lon":-15.5833,"elevation":22,"created_at":"2026-03-04 05:31:30.656+00","updated_at":"2026-03-04 05:31:30.656+00"},{"id":144,"name":"Diokoul Belbouck","departement_id":13,"code":null,"lat":14.2,"lon":-15.45,"elevation":13,"created_at":"2026-03-04 05:31:30.756+00","updated_at":"2026-03-04 05:31:30.756+00"},{"id":145,"name":"Gniby","departement_id":13,"code":null,"lat":14.15,"lon":-15.3667,"elevation":20,"created_at":"2026-03-04 05:31:30.858+00","updated_at":"2026-03-04 05:31:30.858+00"},{"id":146,"name":"Kaffrine","departement_id":13,"code":null,"lat":14.1,"lon":-15.55,"elevation":14,"created_at":"2026-03-04 05:31:30.956+00","updated_at":"2026-03-04 05:31:30.956+00"},{"id":147,"name":"Kahi","departement_id":13,"code":null,"lat":14.05,"lon":-15.45,"elevation":32,"created_at":"2026-03-04 05:31:31.046+00","updated_at":"2026-03-04 05:31:31.046+00"},{"id":148,"name":"Kathiotte","departement_id":13,"code":null,"lat":14.1167,"lon":-15.5167,"elevation":15,"created_at":"2026-03-04 05:31:31.141+00","updated_at":"2026-03-04 05:31:31.141+00"},{"id":149,"name":"Medinatoul Salam 2","departement_id":13,"code":null,"lat":14.0667,"lon":-15.6833,"elevation":21,"created_at":"2026-03-04 05:31:31.233+00","updated_at":"2026-03-04 05:31:31.233+00"},{"id":150,"name":"Nganda","departement_id":13,"code":null,"lat":14.25,"lon":-15.6833,"elevation":14,"created_at":"2026-03-04 05:31:31.342+00","updated_at":"2026-03-04 05:31:31.342+00"},{"id":151,"name":"Fass Thiékene","departement_id":14,"code":null,"lat":13.8833,"lon":-14.9167,"elevation":23,"created_at":"2026-03-04 05:31:31.548+00","updated_at":"2026-03-04 05:31:31.548+00"},{"id":152,"name":"Ida Mouride","departement_id":14,"code":null,"lat":13.95,"lon":-14.8833,"elevation":43,"created_at":"2026-03-04 05:31:31.64+00","updated_at":"2026-03-04 05:31:31.64+00"},{"id":153,"name":"Koungheul","departement_id":14,"code":null,"lat":13.9833,"lon":-14.8,"elevation":29,"created_at":"2026-03-04 05:31:31.744+00","updated_at":"2026-03-04 05:31:31.744+00"},{"id":154,"name":"Lour Escale","departement_id":14,"code":null,"lat":13.8667,"lon":-15.0667,"elevation":26,"created_at":"2026-03-04 05:31:31.845+00","updated_at":"2026-03-04 05:31:31.845+00"},{"id":155,"name":"Maka Yop","departement_id":14,"code":null,"lat":14.0167,"lon":-14.9333,"elevation":52,"created_at":"2026-03-04 05:31:31.938+00","updated_at":"2026-03-04 05:31:31.938+00"},{"id":156,"name":"Missirah Wadene","departement_id":14,"code":null,"lat":13.85,"lon":-14.9833,"elevation":21,"created_at":"2026-03-04 05:31:32.027+00","updated_at":"2026-03-04 05:31:32.027+00"},{"id":157,"name":"Ngainthe Pathe","departement_id":14,"code":null,"lat":14.0833,"lon":-15,"elevation":51,"created_at":"2026-03-04 05:31:32.115+00","updated_at":"2026-03-04 05:31:32.115+00"},{"id":158,"name":"Ribot Escale","departement_id":14,"code":null,"lat":13.9167,"lon":-15.1,"elevation":46,"created_at":"2026-03-04 05:31:32.204+00","updated_at":"2026-03-04 05:31:32.205+00"},{"id":159,"name":"Saly Escale","departement_id":14,"code":null,"lat":14,"lon":-15.2333,"elevation":24,"created_at":"2026-03-04 05:31:32.296+00","updated_at":"2026-03-04 05:31:32.296+00"},{"id":160,"name":"Darou Minam","departement_id":15,"code":null,"lat":14.15,"lon":-15.65,"elevation":7,"created_at":"2026-03-04 05:31:32.476+00","updated_at":"2026-03-04 05:31:32.476+00"},{"id":161,"name":"Dianke Souf","departement_id":15,"code":null,"lat":14.2167,"lon":-15.5167,"elevation":18,"created_at":"2026-03-04 05:31:32.564+00","updated_at":"2026-03-04 05:31:32.564+00"},{"id":162,"name":"Khelcom","departement_id":15,"code":null,"lat":14.24,"lon":-15.96,"elevation":10,"created_at":null,"updated_at":null},{"id":163,"name":"Malem Hoddar","departement_id":15,"code":null,"lat":14.15,"lon":-15.3333,"elevation":37,"created_at":"2026-03-04 05:31:32.661+00","updated_at":"2026-03-04 05:31:32.661+00"},{"id":164,"name":"Ndiobene Samba Lamo","departement_id":15,"code":null,"lat":14.2833,"lon":-15.4833,"elevation":36,"created_at":"2026-03-04 05:31:32.752+00","updated_at":"2026-03-04 05:31:32.752+00"},{"id":165,"name":"Ndioum Ngainth","departement_id":15,"code":null,"lat":14.3167,"lon":-15.35,"elevation":40,"created_at":"2026-03-04 05:31:32.845+00","updated_at":"2026-03-04 05:31:32.845+00"},{"id":166,"name":"Sagna","departement_id":15,"code":null,"lat":14.1833,"lon":-15.6167,"elevation":23,"created_at":"2026-03-04 05:31:32.936+00","updated_at":"2026-03-04 05:31:32.936+00"},{"id":167,"name":"Dara Mboss","departement_id":16,"code":null,"lat":14.0667,"lon":-16.0333,"elevation":15,"created_at":"2026-03-04 05:31:33.215+00","updated_at":"2026-03-04 05:31:33.215+00"},{"id":168,"name":"Fass","departement_id":16,"code":null,"lat":14.1167,"lon":-16.15,"elevation":8,"created_at":"2026-03-04 05:31:33.304+00","updated_at":"2026-03-04 05:31:33.304+00"},{"id":169,"name":"Gagnick","departement_id":16,"code":null,"lat":14.05,"lon":-16.2,"elevation":5,"created_at":"2026-03-04 05:31:33.392+00","updated_at":"2026-03-04 05:31:33.392+00"},{"id":170,"name":"Guinguineo","departement_id":16,"code":null,"lat":14.2667,"lon":-15.95,"elevation":20,"created_at":"2026-03-04 05:31:33.484+00","updated_at":"2026-03-04 05:31:33.484+00"},{"id":171,"name":"Khelcom Birane","departement_id":16,"code":null,"lat":14.1833,"lon":-15.9333,"elevation":19,"created_at":"2026-03-04 05:31:33.576+00","updated_at":"2026-03-04 05:31:33.576+00"},{"id":172,"name":"Mbadakhoune","departement_id":16,"code":null,"lat":14.2,"lon":-16.0833,"elevation":18,"created_at":"2026-03-04 05:31:33.664+00","updated_at":"2026-03-04 05:31:33.664+00"},{"id":173,"name":"Mboss","departement_id":16,"code":null,"lat":14.1333,"lon":-16.0667,"elevation":10,"created_at":"2026-03-04 05:31:33.752+00","updated_at":"2026-03-04 05:31:33.752+00"},{"id":174,"name":"Ndiago","departement_id":16,"code":null,"lat":14.3167,"lon":-15.95,"elevation":20,"created_at":"2026-03-04 05:31:33.839+00","updated_at":"2026-03-04 05:31:33.84+00"},{"id":175,"name":"Ngathie Naoudé","departement_id":16,"code":null,"lat":14.2333,"lon":-16.0333,"elevation":12,"created_at":"2026-03-04 05:31:33.928+00","updated_at":"2026-03-04 05:31:33.928+00"},{"id":176,"name":"Nguelou","departement_id":16,"code":null,"lat":14.15,"lon":-15.9667,"elevation":17,"created_at":"2026-03-04 05:31:34.02+00","updated_at":"2026-03-04 05:31:34.02+00"},{"id":177,"name":"Ourour","departement_id":16,"code":null,"lat":14.25,"lon":-15.8833,"elevation":21,"created_at":"2026-03-04 05:31:34.112+00","updated_at":"2026-03-04 05:31:34.112+00"},{"id":178,"name":"Panal Ouolof","departement_id":16,"code":null,"lat":14.1667,"lon":-16.1167,"elevation":7,"created_at":"2026-03-04 05:31:34.2+00","updated_at":"2026-03-04 05:31:34.2+00"},{"id":179,"name":"Dya","departement_id":17,"code":null,"lat":14.2167,"lon":-16.2167,"elevation":13,"created_at":"2026-03-04 05:31:34.38+00","updated_at":"2026-03-04 05:31:34.38+00"},{"id":180,"name":"Gandiaye","departement_id":17,"code":null,"lat":14.3333,"lon":-16.2333,"elevation":12,"created_at":"2026-03-04 05:31:34.469+00","updated_at":"2026-03-04 05:31:34.469+00"},{"id":181,"name":"Kahone","departement_id":17,"code":null,"lat":14.1667,"lon":-16.1,"elevation":7,"created_at":"2026-03-04 05:31:34.559+00","updated_at":"2026-03-04 05:31:34.559+00"},{"id":182,"name":"Kaolack","departement_id":17,"code":null,"lat":14.15,"lon":-16.0667,"elevation":5,"created_at":"2026-03-04 05:31:34.656+00","updated_at":"2026-03-04 05:31:34.656+00"},{"id":183,"name":"Keur Baka","departement_id":17,"code":null,"lat":14.1,"lon":-16.15,"elevation":10,"created_at":"2026-03-04 05:31:34.751+00","updated_at":"2026-03-04 05:31:34.751+00"},{"id":184,"name":"Keur Socé","departement_id":17,"code":null,"lat":14.25,"lon":-15.9167,"elevation":16,"created_at":"2026-03-04 05:31:34.848+00","updated_at":"2026-03-04 05:31:34.848+00"},{"id":185,"name":"Latmingue","departement_id":17,"code":null,"lat":14.0833,"lon":-15.9167,"elevation":11,"created_at":"2026-03-04 05:31:34.94+00","updated_at":"2026-03-04 05:31:34.94+00"},{"id":186,"name":"Ndiaffaté","departement_id":17,"code":null,"lat":14.2167,"lon":-15.9667,"elevation":27,"created_at":"2026-03-04 05:31:35.031+00","updated_at":"2026-03-04 05:31:35.032+00"},{"id":187,"name":"Ndiedieng","departement_id":17,"code":null,"lat":14.3667,"lon":-16.1333,"elevation":24,"created_at":"2026-03-04 05:31:35.211+00","updated_at":"2026-03-04 05:31:35.211+00"},{"id":188,"name":"Ndiébel","departement_id":17,"code":null,"lat":14.1833,"lon":-16.2833,"elevation":12,"created_at":"2026-03-04 05:31:35.12+00","updated_at":"2026-03-04 05:31:35.12+00"},{"id":189,"name":"Ndoffane","departement_id":17,"code":null,"lat":14.3,"lon":-15.9667,"elevation":13,"created_at":"2026-03-04 05:31:35.303+00","updated_at":"2026-03-04 05:31:35.303+00"},{"id":190,"name":"Sibassor","departement_id":17,"code":null,"lat":14.3333,"lon":-16.1833,"elevation":20,"created_at":"2026-03-04 05:31:35.392+00","updated_at":"2026-03-04 05:31:35.392+00"},{"id":191,"name":"Thiare","departement_id":17,"code":null,"lat":14.2,"lon":-16.2667,"elevation":6,"created_at":"2026-03-04 05:31:35.479+00","updated_at":"2026-03-04 05:31:35.479+00"},{"id":192,"name":"Thiomby","departement_id":17,"code":null,"lat":14.2667,"lon":-16,"elevation":7,"created_at":"2026-03-04 05:31:35.569+00","updated_at":"2026-03-04 05:31:35.569+00"},{"id":193,"name":"Dabaly","departement_id":18,"code":null,"lat":14,"lon":-15.5333,"elevation":37,"created_at":"2026-03-04 05:31:35.752+00","updated_at":"2026-03-04 05:31:35.752+00"},{"id":194,"name":"Darou Salam","departement_id":18,"code":null,"lat":14.1333,"lon":-15.5,"elevation":16,"created_at":"2026-03-04 05:31:35.844+00","updated_at":"2026-03-04 05:31:35.844+00"},{"id":195,"name":"Gainthe Kaye","departement_id":18,"code":null,"lat":14.0333,"lon":-15.6167,"elevation":21,"created_at":"2026-03-04 05:31:35.936+00","updated_at":"2026-03-04 05:31:35.936+00"},{"id":196,"name":"Kayemor","departement_id":18,"code":null,"lat":13.8833,"lon":-15.3833,"elevation":38,"created_at":"2026-03-04 05:31:36.027+00","updated_at":"2026-03-04 05:31:36.027+00"},{"id":197,"name":"Keur Maba Diakhou","departement_id":18,"code":null,"lat":14.0333,"lon":-15.5667,"elevation":31,"created_at":"2026-03-04 05:31:36.116+00","updated_at":"2026-03-04 05:31:36.116+00"},{"id":198,"name":"Keur Madiabel","departement_id":18,"code":null,"lat":14,"lon":-15.7167,"elevation":21,"created_at":"2026-03-04 05:31:36.204+00","updated_at":"2026-03-04 05:31:36.204+00"},{"id":199,"name":"Keur Mandongo","departement_id":18,"code":null,"lat":13.9667,"lon":-15.55,"elevation":27,"created_at":"2026-03-04 05:31:36.291+00","updated_at":"2026-03-04 05:31:36.291+00"},{"id":200,"name":"Medina Sabakh","departement_id":18,"code":null,"lat":13.8333,"lon":-15.4667,"elevation":41,"created_at":"2026-03-04 05:31:36.387+00","updated_at":"2026-03-04 05:31:36.387+00"},{"id":201,"name":"Ndrame Escale","departement_id":18,"code":null,"lat":13.9,"lon":-15.4167,"elevation":23,"created_at":"2026-03-04 05:31:36.479+00","updated_at":"2026-03-04 05:31:36.479+00"},{"id":202,"name":"Ngayene","departement_id":18,"code":null,"lat":14.0833,"lon":-15.3833,"elevation":25,"created_at":"2026-03-04 05:31:36.572+00","updated_at":"2026-03-04 05:31:36.572+00"},{"id":203,"name":"Nioro","departement_id":18,"code":null,"lat":13.75,"lon":-15.7833,"elevation":14,"created_at":"2026-03-04 05:31:36.66+00","updated_at":"2026-03-04 05:31:36.66+00"},{"id":204,"name":"Paos Koto","departement_id":18,"code":null,"lat":13.8,"lon":-15.5167,"elevation":25,"created_at":"2026-03-04 05:31:36.762+00","updated_at":"2026-03-04 05:31:36.762+00"},{"id":205,"name":"Porokhane","departement_id":18,"code":null,"lat":13.85,"lon":-15.5833,"elevation":9,"created_at":"2026-03-04 05:31:36.855+00","updated_at":"2026-03-04 05:31:36.855+00"},{"id":206,"name":"Taiba Niasséne","departement_id":18,"code":null,"lat":13.7833,"lon":-15.85,"elevation":31,"created_at":"2026-03-04 05:31:36.944+00","updated_at":"2026-03-04 05:31:36.944+00"},{"id":207,"name":"Wack Ngouna","departement_id":18,"code":null,"lat":13.95,"lon":-15.4833,"elevation":20,"created_at":"2026-03-04 05:31:37.036+00","updated_at":"2026-03-04 05:31:37.036+00"},{"id":208,"name":"Bagadadji","departement_id":19,"code":null,"lat":12.8833,"lon":-14.95,"elevation":12,"created_at":"2026-03-04 05:31:37.307+00","updated_at":"2026-03-04 05:31:37.307+00"},{"id":209,"name":"Coumbacara","departement_id":19,"code":null,"lat":12.7833,"lon":-14.65,"elevation":32,"created_at":"2026-03-04 05:31:37.44+00","updated_at":"2026-03-04 05:31:37.44+00"},{"id":210,"name":"Dabo","departement_id":19,"code":null,"lat":12.9167,"lon":-14.8333,"elevation":17,"created_at":"2026-03-04 05:31:37.535+00","updated_at":"2026-03-04 05:31:37.535+00"},{"id":211,"name":"Dialambéré","departement_id":19,"code":null,"lat":12.75,"lon":-14.8,"elevation":51,"created_at":"2026-03-04 05:31:37.626+00","updated_at":"2026-03-04 05:31:37.626+00"},{"id":212,"name":"Dioulacolon","departement_id":19,"code":null,"lat":12.8,"lon":-14.75,"elevation":43,"created_at":"2026-03-04 05:31:37.729+00","updated_at":"2026-03-04 05:31:37.729+00"},{"id":213,"name":"Guiro Yero Bocar","departement_id":19,"code":null,"lat":12.85,"lon":-14.9167,"elevation":48,"created_at":"2026-03-04 05:31:37.826+00","updated_at":"2026-03-04 05:31:37.826+00"},{"id":214,"name":"Kolda","departement_id":19,"code":null,"lat":12.8833,"lon":-14.95,"elevation":12,"created_at":"2026-03-04 05:31:37.917+00","updated_at":"2026-03-04 05:31:37.917+00"},{"id":215,"name":"Mampatim","departement_id":19,"code":null,"lat":13,"lon":-14.95,"elevation":40,"created_at":"2026-03-04 05:31:38.009+00","updated_at":"2026-03-04 05:31:38.009+00"},{"id":216,"name":"Medina El Hadj","departement_id":19,"code":null,"lat":12.7667,"lon":-14.8833,"elevation":54,"created_at":"2026-03-04 05:31:38.102+00","updated_at":"2026-03-04 05:31:38.103+00"},{"id":217,"name":"Médina Cherif","departement_id":19,"code":null,"lat":12.85,"lon":-14.8,"elevation":46,"created_at":"2026-03-04 05:31:38.193+00","updated_at":"2026-03-04 05:31:38.193+00"},{"id":218,"name":"Salikegne","departement_id":19,"code":null,"lat":12.8167,"lon":-14.7167,"elevation":36,"created_at":"2026-03-04 05:31:38.285+00","updated_at":"2026-03-04 05:31:38.285+00"},{"id":219,"name":"Saré Bidji","departement_id":19,"code":null,"lat":12.9333,"lon":-14.8833,"elevation":24,"created_at":"2026-03-04 05:31:38.378+00","updated_at":"2026-03-04 05:31:38.378+00"},{"id":220,"name":"Saré Yoba Diéga","departement_id":19,"code":null,"lat":12.7167,"lon":-14.9667,"elevation":60,"created_at":"2026-03-04 05:31:38.469+00","updated_at":"2026-03-04 05:31:38.469+00"},{"id":221,"name":"Tankanto Escale","departement_id":19,"code":null,"lat":12.95,"lon":-14.9167,"elevation":49,"created_at":"2026-03-04 05:31:38.567+00","updated_at":"2026-03-04 05:31:38.567+00"},{"id":222,"name":"Thietty","departement_id":19,"code":null,"lat":12.8,"lon":-14.9833,"elevation":34,"created_at":"2026-03-04 05:31:38.657+00","updated_at":"2026-03-04 05:31:38.657+00"},{"id":223,"name":"Badion","departement_id":20,"code":null,"lat":12.6333,"lon":-14.4,"elevation":21,"created_at":"2026-03-04 05:31:38.856+00","updated_at":"2026-03-04 05:31:38.856+00"},{"id":224,"name":"Bignarabe","departement_id":20,"code":null,"lat":12.7333,"lon":-14.35,"elevation":26,"created_at":"2026-03-04 05:31:38.952+00","updated_at":"2026-03-04 05:31:38.952+00"},{"id":225,"name":"Bourouco","departement_id":20,"code":null,"lat":12.6,"lon":-14.5,"elevation":60,"created_at":"2026-03-04 05:31:39.04+00","updated_at":"2026-03-04 05:31:39.04+00"},{"id":226,"name":"Dinguiraye","departement_id":20,"code":null,"lat":14.6167,"lon":-16.75,"elevation":19,"created_at":"2026-03-04 05:31:39.128+00","updated_at":"2026-03-04 05:31:39.128+00"},{"id":227,"name":"Fafacourou","departement_id":20,"code":null,"lat":12.4833,"lon":-14.5167,"elevation":43,"created_at":"2026-03-04 05:31:39.216+00","updated_at":"2026-03-04 05:31:39.216+00"},{"id":228,"name":"Kerewane","departement_id":20,"code":null,"lat":12.6667,"lon":-14.2667,"elevation":57,"created_at":"2026-03-04 05:31:39.31+00","updated_at":"2026-03-04 05:31:39.31+00"},{"id":229,"name":"Koulinto","departement_id":20,"code":null,"lat":12.7,"lon":-14.45,"elevation":16,"created_at":"2026-03-04 05:31:39.404+00","updated_at":"2026-03-04 05:31:39.404+00"},{"id":230,"name":"Medina Yoro Foulah","departement_id":20,"code":null,"lat":12.6833,"lon":-14.5333,"elevation":44,"created_at":"2026-03-04 05:31:39.493+00","updated_at":"2026-03-04 05:31:39.493+00"},{"id":231,"name":"Ndorna","departement_id":20,"code":null,"lat":12.55,"lon":-14.4833,"elevation":43,"created_at":"2026-03-04 05:31:39.581+00","updated_at":"2026-03-04 05:31:39.581+00"},{"id":232,"name":"Niaming","departement_id":20,"code":null,"lat":12.6167,"lon":-14.4167,"elevation":36,"created_at":"2026-03-04 05:31:39.673+00","updated_at":"2026-03-04 05:31:39.673+00"},{"id":233,"name":"Pata","departement_id":20,"code":null,"lat":12.6667,"lon":-14.35,"elevation":23,"created_at":"2026-03-04 05:31:39.761+00","updated_at":"2026-03-04 05:31:39.761+00"},{"id":234,"name":"Bonconto","departement_id":21,"code":null,"lat":13.05,"lon":-14.5667,"elevation":34,"created_at":"2026-03-04 05:31:39.949+00","updated_at":"2026-03-04 05:31:39.949+00"},{"id":235,"name":"Diaobé Kabendou","departement_id":21,"code":null,"lat":12.9167,"lon":-14.3333,"elevation":67,"created_at":"2026-03-04 05:31:40.041+00","updated_at":"2026-03-04 05:31:40.041+00"},{"id":236,"name":"Kandia","departement_id":21,"code":null,"lat":13.1333,"lon":-14.5667,"elevation":41,"created_at":"2026-03-04 05:31:40.13+00","updated_at":"2026-03-04 05:31:40.13+00"},{"id":237,"name":"Kandiaye","departement_id":21,"code":null,"lat":13.0833,"lon":-14.6333,"elevation":52,"created_at":"2026-03-04 05:31:40.221+00","updated_at":"2026-03-04 05:31:40.221+00"},{"id":238,"name":"Kounkané","departement_id":21,"code":null,"lat":12.9667,"lon":-14.2833,"elevation":48,"created_at":"2026-03-04 05:31:40.309+00","updated_at":"2026-03-04 05:31:40.309+00"},{"id":239,"name":"Linkering","departement_id":21,"code":null,"lat":12.8,"lon":-14.2167,"elevation":42,"created_at":"2026-03-04 05:31:40.401+00","updated_at":"2026-03-04 05:31:40.401+00"},{"id":240,"name":"Medina Gounass","departement_id":21,"code":null,"lat":14.7933,"lon":-17.3994,"elevation":0,"created_at":"2026-03-04 05:31:40.493+00","updated_at":"2026-03-04 05:31:40.493+00"},{"id":241,"name":"Nemataba","departement_id":21,"code":null,"lat":12.9167,"lon":-14.5,"elevation":52,"created_at":"2026-03-04 05:31:40.587+00","updated_at":"2026-03-04 05:31:40.587+00"},{"id":242,"name":"Ouassadou","departement_id":21,"code":null,"lat":12.8,"lon":-13.9,"elevation":59,"created_at":"2026-03-04 05:31:40.677+00","updated_at":"2026-03-04 05:31:40.677+00"},{"id":243,"name":"Pakour","departement_id":21,"code":null,"lat":13.0333,"lon":-14.4167,"elevation":23,"created_at":"2026-03-04 05:31:40.769+00","updated_at":"2026-03-04 05:31:40.769+00"},{"id":244,"name":"Paroumba","departement_id":21,"code":null,"lat":13.0833,"lon":-14.6667,"elevation":46,"created_at":"2026-03-04 05:31:40.861+00","updated_at":"2026-03-04 05:31:40.861+00"},{"id":245,"name":"Saré Coly Sallé","departement_id":21,"code":null,"lat":12.8167,"lon":-14.4167,"elevation":43,"created_at":"2026-03-04 05:31:40.954+00","updated_at":"2026-03-04 05:31:40.954+00"},{"id":246,"name":"Sinthiang Koundara","departement_id":21,"code":null,"lat":12.75,"lon":-14.1833,"elevation":52,"created_at":"2026-03-04 05:31:41.046+00","updated_at":"2026-03-04 05:31:41.046+00"},{"id":247,"name":"Vélingara","departement_id":21,"code":null,"lat":13.15,"lon":-14.1167,"elevation":46,"created_at":"2026-03-04 05:31:41.137+00","updated_at":"2026-03-04 05:31:41.137+00"},{"id":248,"name":"Bandafassi","departement_id":22,"code":null,"lat":12.5333,"lon":-12.3167,"elevation":193,"created_at":"2026-03-04 05:31:41.409+00","updated_at":"2026-03-04 05:31:41.41+00"},{"id":249,"name":"Dimboli","departement_id":22,"code":null,"lat":12.4167,"lon":-12.25,"elevation":387,"created_at":"2026-03-04 05:31:41.504+00","updated_at":"2026-03-04 05:31:41.504+00"},{"id":250,"name":"Dindéfélo","departement_id":22,"code":null,"lat":12.3833,"lon":-12.2833,"elevation":356,"created_at":"2026-03-04 05:31:41.594+00","updated_at":"2026-03-04 05:31:41.594+00"},{"id":251,"name":"Fongolimbi","departement_id":22,"code":null,"lat":12.5667,"lon":-12.4333,"elevation":269,"created_at":"2026-03-04 05:31:41.686+00","updated_at":"2026-03-04 05:31:41.686+00"},{"id":252,"name":"Kédougou","departement_id":22,"code":null,"lat":12.55,"lon":-12.1833,"elevation":115,"created_at":"2026-03-04 05:31:41.777+00","updated_at":"2026-03-04 05:31:41.777+00"},{"id":253,"name":"Ninéfécha","departement_id":22,"code":null,"lat":12.5,"lon":-12.2667,"elevation":138,"created_at":"2026-03-04 05:31:41.865+00","updated_at":"2026-03-04 05:31:41.865+00"},{"id":254,"name":"Tomboroncoto","departement_id":22,"code":null,"lat":12.7333,"lon":-12.35,"elevation":148,"created_at":"2026-03-04 05:31:41.953+00","updated_at":"2026-03-04 05:31:41.953+00"},{"id":255,"name":"Dakately","departement_id":23,"code":null,"lat":12.45744,"lon":-12.64951,"elevation":128,"created_at":null,"updated_at":null},{"id":256,"name":"Dar Salam","departement_id":23,"code":null,"lat":12.6333,"lon":-12.5833,"elevation":56,"created_at":"2026-03-04 05:31:42.133+00","updated_at":"2026-03-04 05:31:42.133+00"},{"id":257,"name":"Ethiolo","departement_id":23,"code":null,"lat":12.6167,"lon":-12.65,"elevation":126,"created_at":"2026-03-04 05:31:42.221+00","updated_at":"2026-03-04 05:31:42.221+00"},{"id":258,"name":"Kevoye","departement_id":23,"code":null,"lat":12.5333,"lon":-12.6333,"elevation":111,"created_at":"2026-03-04 05:31:42.313+00","updated_at":"2026-03-04 05:31:42.313+00"},{"id":259,"name":"Oubadji","departement_id":23,"code":null,"lat":12.5667,"lon":-12.5167,"elevation":94,"created_at":"2026-03-04 05:31:42.405+00","updated_at":"2026-03-04 05:31:42.405+00"},{"id":260,"name":"Salémata","departement_id":23,"code":null,"lat":12.6,"lon":-12.5833,"elevation":57,"created_at":"2026-03-04 05:31:42.497+00","updated_at":"2026-03-04 05:31:42.497+00"},{"id":261,"name":"Bembou","departement_id":24,"code":null,"lat":12.7,"lon":-11.7833,"elevation":185,"created_at":"2026-03-04 05:31:42.677+00","updated_at":"2026-03-04 05:31:42.677+00"},{"id":262,"name":"Khossanto","departement_id":24,"code":null,"lat":12.7667,"lon":-11.8833,"elevation":156,"created_at":"2026-03-04 05:31:42.765+00","updated_at":"2026-03-04 05:31:42.765+00"},{"id":263,"name":"Medina Baffé","departement_id":24,"code":null,"lat":12.6833,"lon":-11.95,"elevation":173,"created_at":"2026-03-04 05:31:42.857+00","updated_at":"2026-03-04 05:31:42.857+00"},{"id":264,"name":"Missirah Sirimana","departement_id":24,"code":null,"lat":12.65,"lon":-12.0667,"elevation":140,"created_at":"2026-03-04 05:31:42.96+00","updated_at":"2026-03-04 05:31:42.96+00"},{"id":265,"name":"Sabodala","departement_id":24,"code":null,"lat":12.7,"lon":-11.9667,"elevation":167,"created_at":"2026-03-04 05:31:43.055+00","updated_at":"2026-03-04 05:31:43.055+00"},{"id":266,"name":"Saraya","departement_id":24,"code":null,"lat":12.8333,"lon":-11.7833,"elevation":176,"created_at":"2026-03-04 05:31:43.145+00","updated_at":"2026-03-04 05:31:43.145+00"},{"id":267,"name":"Badegne Ouolof","departement_id":25,"code":null,"lat":15.2167,"lon":-16.2833,"elevation":31,"created_at":"2026-03-04 05:31:43.417+00","updated_at":"2026-03-04 05:31:43.417+00"},{"id":268,"name":"Darou Marnane","departement_id":25,"code":null,"lat":15.3333,"lon":-16.25,"elevation":26,"created_at":"2026-03-04 05:31:43.512+00","updated_at":"2026-03-04 05:31:43.512+00"},{"id":269,"name":"Darou Mouhty","departement_id":25,"code":null,"lat":15.4333,"lon":-16.35,"elevation":27,"created_at":"2026-03-04 05:31:43.601+00","updated_at":"2026-03-04 05:31:43.601+00"},{"id":270,"name":"Diokoul Diawrigne","departement_id":25,"code":null,"lat":15.3167,"lon":-16.3167,"elevation":30,"created_at":"2026-03-04 05:31:43.689+00","updated_at":"2026-03-04 05:31:43.689+00"},{"id":271,"name":"Gueoul","departement_id":25,"code":null,"lat":15.2833,"lon":-16.25,"elevation":41,"created_at":"2026-03-04 05:31:43.783+00","updated_at":"2026-03-04 05:31:43.783+00"},{"id":272,"name":"Kab Gaye","departement_id":25,"code":null,"lat":15.1833,"lon":-16.4167,"elevation":29,"created_at":"2026-03-04 05:31:43.878+00","updated_at":"2026-03-04 05:31:43.878+00"},{"id":273,"name":"Kanene Ndiob","departement_id":25,"code":null,"lat":15.3,"lon":-16.4,"elevation":30,"created_at":"2026-03-04 05:31:43.967+00","updated_at":"2026-03-04 05:31:43.967+00"},{"id":274,"name":"Kebemer","departement_id":25,"code":null,"lat":15.3667,"lon":-16.45,"elevation":35,"created_at":"2026-03-04 05:31:44.054+00","updated_at":"2026-03-04 05:31:44.054+00"},{"id":275,"name":"Loro","departement_id":25,"code":null,"lat":15.25,"lon":-16.3833,"elevation":28,"created_at":"2026-03-04 05:31:44.151+00","updated_at":"2026-03-04 05:31:44.151+00"},{"id":276,"name":"Mbacke Cajor","departement_id":25,"code":null,"lat":15.35,"lon":-16.2167,"elevation":38,"created_at":"2026-03-04 05:31:44.327+00","updated_at":"2026-03-04 05:31:44.327+00"},{"id":277,"name":"Mbadiane","departement_id":25,"code":null,"lat":15.1667,"lon":-16.3333,"elevation":22,"created_at":"2026-03-04 05:31:44.239+00","updated_at":"2026-03-04 05:31:44.239+00"},{"id":278,"name":"Ndande","departement_id":25,"code":null,"lat":15.3667,"lon":-16.5167,"elevation":40,"created_at":"2026-03-04 05:31:44.417+00","updated_at":"2026-03-04 05:31:44.417+00"},{"id":279,"name":"Ndoyene","departement_id":25,"code":null,"lat":15.2667,"lon":-16.35,"elevation":34,"created_at":"2026-03-04 05:31:44.507+00","updated_at":"2026-03-04 05:31:44.507+00"},{"id":280,"name":"Ngourane Ouolof","departement_id":25,"code":null,"lat":15.4167,"lon":-16.3,"elevation":27,"created_at":"2026-03-04 05:31:44.611+00","updated_at":"2026-03-04 05:31:44.611+00"},{"id":281,"name":"Sagatta Gueth","departement_id":25,"code":null,"lat":15.2,"lon":-16.45,"elevation":35,"created_at":"2026-03-04 05:31:44.703+00","updated_at":"2026-03-04 05:31:44.703+00"},{"id":282,"name":"Sam Yabal","departement_id":25,"code":null,"lat":15.3333,"lon":-16.3833,"elevation":29,"created_at":"2026-03-04 05:31:44.791+00","updated_at":"2026-03-04 05:31:44.791+00"},{"id":283,"name":"Thieppe","departement_id":25,"code":null,"lat":15.3,"lon":-16.5,"elevation":40,"created_at":"2026-03-04 05:31:44.888+00","updated_at":"2026-03-04 05:31:44.888+00"},{"id":284,"name":"Thiolom Fall","departement_id":25,"code":null,"lat":15.25,"lon":-16.4833,"elevation":40,"created_at":"2026-03-04 05:31:44.983+00","updated_at":"2026-03-04 05:31:44.983+00"},{"id":285,"name":"Touba Merina","departement_id":25,"code":null,"lat":15.2833,"lon":-16.3,"elevation":37,"created_at":"2026-03-04 05:31:45.071+00","updated_at":"2026-03-04 05:31:45.071+00"},{"id":286,"name":"Affe Djolof","departement_id":26,"code":null,"lat":15.2333,"lon":-14.9833,"elevation":18,"created_at":"2026-03-04 05:31:45.263+00","updated_at":"2026-03-04 05:31:45.263+00"},{"id":287,"name":"Barkedji","departement_id":26,"code":null,"lat":15.2833,"lon":-14.8667,"elevation":11,"created_at":"2026-03-04 05:31:45.352+00","updated_at":"2026-03-04 05:31:45.352+00"},{"id":288,"name":"Boulal","departement_id":26,"code":null,"lat":15.3333,"lon":-14.75,"elevation":36,"created_at":"2026-03-04 05:31:45.443+00","updated_at":"2026-03-04 05:31:45.443+00"},{"id":289,"name":"Dahra","departement_id":26,"code":null,"lat":15.35,"lon":-15.4833,"elevation":39,"created_at":"2026-03-04 05:31:45.534+00","updated_at":"2026-03-04 05:31:45.534+00"},{"id":290,"name":"Dealy","departement_id":26,"code":null,"lat":15.1833,"lon":-15.1167,"elevation":36,"created_at":"2026-03-04 05:31:45.634+00","updated_at":"2026-03-04 05:31:45.634+00"},{"id":291,"name":"Dodji","departement_id":26,"code":null,"lat":15.3167,"lon":-15,"elevation":14,"created_at":"2026-03-04 05:31:45.723+00","updated_at":"2026-03-04 05:31:45.723+00"},{"id":292,"name":"Gassane","departement_id":26,"code":null,"lat":15.25,"lon":-15.35,"elevation":25,"created_at":"2026-03-04 05:31:45.825+00","updated_at":"2026-03-04 05:31:45.825+00"},{"id":293,"name":"Kamb","departement_id":26,"code":null,"lat":15.4167,"lon":-15.1333,"elevation":17,"created_at":"2026-03-04 05:31:45.915+00","updated_at":"2026-03-04 05:31:45.915+00"},{"id":294,"name":"Labgar","departement_id":26,"code":null,"lat":15.4833,"lon":-14.9833,"elevation":31,"created_at":"2026-03-04 05:31:46.013+00","updated_at":"2026-03-04 05:31:46.013+00"},{"id":295,"name":"Linguere","departement_id":26,"code":null,"lat":15.3833,"lon":-15.1167,"elevation":7,"created_at":"2026-03-04 05:31:46.105+00","updated_at":"2026-03-04 05:31:46.105+00"},{"id":296,"name":"Mbeuleukhe","departement_id":26,"code":null,"lat":15.15,"lon":-14.9667,"elevation":41,"created_at":"2026-03-04 05:31:46.2+00","updated_at":"2026-03-04 05:31:46.2+00"},{"id":297,"name":"Mboula","departement_id":26,"code":null,"lat":15.5333,"lon":-15.2833,"elevation":25,"created_at":"2026-03-04 05:31:46.291+00","updated_at":"2026-03-04 05:31:46.291+00"},{"id":298,"name":"Ouarkhokh","departement_id":26,"code":null,"lat":15.3667,"lon":-14.7,"elevation":46,"created_at":"2026-03-04 05:31:46.381+00","updated_at":"2026-03-04 05:31:46.381+00"},{"id":299,"name":"Sagatta Djolof","departement_id":26,"code":null,"lat":15.2833,"lon":-15.25,"elevation":43,"created_at":"2026-03-04 05:31:46.471+00","updated_at":"2026-03-04 05:31:46.471+00"},{"id":300,"name":"Tessekere Forage","departement_id":26,"code":null,"lat":15.8167,"lon":-15.05,"elevation":45,"created_at":"2026-03-04 05:31:46.563+00","updated_at":"2026-03-04 05:31:46.563+00"},{"id":301,"name":"Thiamene Passe","departement_id":26,"code":null,"lat":15.4333,"lon":-15.3833,"elevation":38,"created_at":"2026-03-04 05:31:46.659+00","updated_at":"2026-03-04 05:31:46.659+00"},{"id":302,"name":"Thiarny","departement_id":26,"code":null,"lat":15.3,"lon":-15.2333,"elevation":40,"created_at":"2026-03-04 05:31:46.751+00","updated_at":"2026-03-04 05:31:46.751+00"},{"id":303,"name":"Thiel","departement_id":26,"code":null,"lat":15.25,"lon":-15.05,"elevation":41,"created_at":"2026-03-04 05:31:46.843+00","updated_at":"2026-03-04 05:31:46.843+00"},{"id":304,"name":"Yang Yang","departement_id":26,"code":null,"lat":15.4667,"lon":-15.4667,"elevation":28,"created_at":"2026-03-04 05:31:46.935+00","updated_at":"2026-03-04 05:31:46.935+00"},{"id":305,"name":"Coki","departement_id":27,"code":null,"lat":15.2333,"lon":-16.3667,"elevation":33,"created_at":"2026-03-04 05:31:47.115+00","updated_at":"2026-03-04 05:31:47.115+00"},{"id":306,"name":"Gande","departement_id":27,"code":null,"lat":15.2,"lon":-16.0833,"elevation":39,"created_at":"2026-03-04 05:31:47.203+00","updated_at":"2026-03-04 05:31:47.203+00"},{"id":307,"name":"Guet Ardo","departement_id":27,"code":null,"lat":15.5,"lon":-16.2333,"elevation":30,"created_at":"2026-03-04 05:31:47.295+00","updated_at":"2026-03-04 05:31:47.295+00"},{"id":308,"name":"Kele Gueye","departement_id":27,"code":null,"lat":15.4667,"lon":-16.3833,"elevation":35,"created_at":"2026-03-04 05:31:47.384+00","updated_at":"2026-03-04 05:31:47.384+00"},{"id":309,"name":"Keur Momar Sarr","departement_id":27,"code":null,"lat":15.5333,"lon":-15.95,"elevation":51,"created_at":"2026-03-04 05:31:47.475+00","updated_at":"2026-03-04 05:31:47.475+00"},{"id":310,"name":"Leona","departement_id":27,"code":null,"lat":15.5333,"lon":-16.3,"elevation":22,"created_at":"2026-03-04 05:31:47.563+00","updated_at":"2026-03-04 05:31:47.563+00"},{"id":311,"name":"Louga","departement_id":27,"code":null,"lat":15.6167,"lon":-16.2333,"elevation":36,"created_at":"2026-03-04 05:31:47.652+00","updated_at":"2026-03-04 05:31:47.652+00"},{"id":312,"name":"Mbediene","departement_id":27,"code":null,"lat":15.65,"lon":-16.15,"elevation":19,"created_at":"2026-03-04 05:31:47.744+00","updated_at":"2026-03-04 05:31:47.744+00"},{"id":313,"name":"Ndiagne","departement_id":27,"code":null,"lat":15.4167,"lon":-16.5,"elevation":37,"created_at":"2026-03-04 05:31:47.836+00","updated_at":"2026-03-04 05:31:47.836+00"},{"id":314,"name":"Nguer Malal","departement_id":27,"code":null,"lat":15.5667,"lon":-16.4,"elevation":41,"created_at":"2026-03-04 05:31:48.019+00","updated_at":"2026-03-04 05:31:48.019+00"},{"id":315,"name":"Ngueune Sarr","departement_id":27,"code":null,"lat":15.5,"lon":-16.4167,"elevation":31,"created_at":"2026-03-04 05:31:47.929+00","updated_at":"2026-03-04 05:31:47.929+00"},{"id":316,"name":"Nguidile","departement_id":27,"code":null,"lat":15.5833,"lon":-16.3833,"elevation":38,"created_at":"2026-03-04 05:31:48.107+00","updated_at":"2026-03-04 05:31:48.107+00"},{"id":317,"name":"Niomre","departement_id":27,"code":null,"lat":15.5167,"lon":-16.1667,"elevation":29,"created_at":"2026-03-04 05:31:48.215+00","updated_at":"2026-03-04 05:31:48.215+00"},{"id":318,"name":"Pete Ouarack","departement_id":27,"code":null,"lat":15.4667,"lon":-16.15,"elevation":30,"created_at":"2026-03-04 05:31:48.304+00","updated_at":"2026-03-04 05:31:48.304+00"},{"id":319,"name":"Sakal","departement_id":27,"code":null,"lat":15.3333,"lon":-16.5833,"elevation":50,"created_at":"2026-03-04 05:31:48.391+00","updated_at":"2026-03-04 05:31:48.391+00"},{"id":320,"name":"Syer","departement_id":27,"code":null,"lat":15.6167,"lon":-16.3167,"elevation":30,"created_at":"2026-03-04 05:31:48.484+00","updated_at":"2026-03-04 05:31:48.484+00"},{"id":321,"name":"Thiamene","departement_id":27,"code":null,"lat":15.4167,"lon":-16.25,"elevation":30,"created_at":"2026-03-04 05:31:48.727+00","updated_at":"2026-03-04 05:31:48.727+00"},{"id":322,"name":"Aouré","departement_id":28,"code":null,"lat":15.4333,"lon":-13.6833,"elevation":75,"created_at":"2026-03-04 05:31:49.027+00","updated_at":"2026-03-04 05:31:49.027+00"},{"id":323,"name":"Bokiladji","departement_id":28,"code":null,"lat":15.2833,"lon":-13.5833,"elevation":59,"created_at":"2026-03-04 05:31:49.127+00","updated_at":"2026-03-04 05:31:49.127+00"},{"id":324,"name":"Dembancane","departement_id":28,"code":null,"lat":15.35,"lon":-13.45,"elevation":53,"created_at":"2026-03-04 05:31:49.25+00","updated_at":"2026-03-04 05:31:49.25+00"},{"id":325,"name":"Hamady Hounare","departement_id":28,"code":null,"lat":15.4167,"lon":-13.65,"elevation":62,"created_at":"2026-03-04 05:31:49.371+00","updated_at":"2026-03-04 05:31:49.371+00"},{"id":326,"name":"Kanel","departement_id":28,"code":null,"lat":15.4833,"lon":-13.1667,"elevation":18,"created_at":"2026-03-04 05:31:49.485+00","updated_at":"2026-03-04 05:31:49.485+00"},{"id":327,"name":"Ndendory","departement_id":28,"code":null,"lat":15.5167,"lon":-13.3333,"elevation":26,"created_at":"2026-03-04 05:31:49.623+00","updated_at":"2026-03-04 05:31:49.623+00"},{"id":328,"name":"Odobéré","departement_id":28,"code":null,"lat":15.4,"lon":-13.4,"elevation":71,"created_at":"2026-03-04 05:31:49.716+00","updated_at":"2026-03-04 05:31:49.717+00"},{"id":329,"name":"Orkadiére","departement_id":28,"code":null,"lat":15.5833,"lon":-13.3667,"elevation":34,"created_at":"2026-03-04 05:31:49.838+00","updated_at":"2026-03-04 05:31:49.838+00"},{"id":330,"name":"Ouaounde","departement_id":28,"code":null,"lat":15.5,"lon":-13.55,"elevation":62,"created_at":"2026-03-04 05:31:49.933+00","updated_at":"2026-03-04 05:31:49.933+00"},{"id":331,"name":"Semme","departement_id":28,"code":null,"lat":15.4667,"lon":-13.7167,"elevation":61,"created_at":"2026-03-04 05:31:50.027+00","updated_at":"2026-03-04 05:31:50.027+00"},{"id":332,"name":"Sinthiou Bamambé Banadji","departement_id":28,"code":null,"lat":15.3833,"lon":-13.65,"elevation":43,"created_at":"2026-03-04 05:31:50.166+00","updated_at":"2026-03-04 05:31:50.166+00"},{"id":333,"name":"Wouro Sidy","departement_id":28,"code":null,"lat":15.45,"lon":-13.6833,"elevation":57,"created_at":"2026-03-04 05:31:50.262+00","updated_at":"2026-03-04 05:31:50.262+00"},{"id":334,"name":"Agnam Civol","departement_id":29,"code":null,"lat":15.6333,"lon":-13.65,"elevation":58,"created_at":"2026-03-04 05:31:50.444+00","updated_at":"2026-03-04 05:31:50.445+00"},{"id":335,"name":"Bokidiawé","departement_id":29,"code":null,"lat":15.55,"lon":-13.85,"elevation":41,"created_at":"2026-03-04 05:31:50.535+00","updated_at":"2026-03-04 05:31:50.535+00"},{"id":336,"name":"Dabia","departement_id":29,"code":null,"lat":15.45,"lon":-13.9333,"elevation":57,"created_at":"2026-03-04 05:31:50.625+00","updated_at":"2026-03-04 05:31:50.625+00"},{"id":337,"name":"Matam","departement_id":29,"code":null,"lat":15.66,"lon":-13.255,"elevation":15,"created_at":"2026-03-04 05:31:50.715+00","updated_at":"2026-03-04 05:31:50.715+00"},{"id":338,"name":"Nabadji Civol","departement_id":29,"code":null,"lat":15.55,"lon":-13.7833,"elevation":58,"created_at":"2026-03-04 05:31:50.804+00","updated_at":"2026-03-04 05:31:50.804+00"},{"id":339,"name":"Nguidjilone","departement_id":29,"code":null,"lat":15.5,"lon":-14,"elevation":65,"created_at":"2026-03-04 05:31:50.895+00","updated_at":"2026-03-04 05:31:50.895+00"},{"id":340,"name":"Ogo","departement_id":29,"code":null,"lat":15.6167,"lon":-13.7667,"elevation":65,"created_at":"2026-03-04 05:31:50.989+00","updated_at":"2026-03-04 05:31:50.99+00"},{"id":341,"name":"Orefondé","departement_id":29,"code":null,"lat":15.5833,"lon":-14.05,"elevation":36,"created_at":"2026-03-04 05:31:51.08+00","updated_at":"2026-03-04 05:31:51.08+00"},{"id":342,"name":"Ourossogui","departement_id":29,"code":null,"lat":15.6167,"lon":-13.3167,"elevation":15,"created_at":"2026-03-04 05:31:51.178+00","updated_at":"2026-03-04 05:31:51.178+00"},{"id":343,"name":"Thilogne","departement_id":29,"code":null,"lat":15.5833,"lon":-13.55,"elevation":76,"created_at":"2026-03-04 05:31:51.268+00","updated_at":"2026-03-04 05:31:51.268+00"},{"id":344,"name":"Lougré Thioly","departement_id":30,"code":null,"lat":15.7833,"lon":-13.8,"elevation":67,"created_at":"2026-03-04 05:31:51.451+00","updated_at":"2026-03-04 05:31:51.451+00"},{"id":345,"name":"Oudalaye","departement_id":30,"code":null,"lat":15.85,"lon":-14.1,"elevation":58,"created_at":"2026-03-04 05:31:51.543+00","updated_at":"2026-03-04 05:31:51.543+00"},{"id":346,"name":"Ranerou","departement_id":30,"code":null,"lat":15.3,"lon":-13.9333,"elevation":16,"created_at":"2026-03-04 05:31:51.635+00","updated_at":"2026-03-04 05:31:51.635+00"},{"id":347,"name":"Velingara","departement_id":30,"code":null,"lat":15.15,"lon":-14.1167,"elevation":50,"created_at":"2026-03-04 05:31:51.727+00","updated_at":"2026-03-04 05:31:51.727+00"},{"id":348,"name":"Bokhol","departement_id":31,"code":null,"lat":16.5167,"lon":-15.35,"elevation":21,"created_at":"2026-03-04 05:31:52.003+00","updated_at":"2026-03-04 05:31:52.003+00"},{"id":349,"name":"Dagana","departement_id":31,"code":null,"lat":16.5167,"lon":-15.5,"elevation":8,"created_at":"2026-03-04 05:31:52.092+00","updated_at":"2026-03-04 05:31:52.092+00"},{"id":350,"name":"Diama","departement_id":31,"code":null,"lat":16.2333,"lon":-16.2833,"elevation":8,"created_at":"2026-03-04 05:31:52.183+00","updated_at":"2026-03-04 05:31:52.183+00"},{"id":351,"name":"Gae","departement_id":31,"code":null,"lat":16.3167,"lon":-15.5167,"elevation":13,"created_at":"2026-03-04 05:31:52.272+00","updated_at":"2026-03-04 05:31:52.272+00"},{"id":352,"name":"Mbane","departement_id":31,"code":null,"lat":16.3667,"lon":-15.5,"elevation":17,"created_at":"2026-03-04 05:31:52.363+00","updated_at":"2026-03-04 05:31:52.363+00"},{"id":353,"name":"Ndombo Sandjiry","departement_id":31,"code":null,"lat":16.4,"lon":-15.3333,"elevation":15,"created_at":"2026-03-04 05:31:52.46+00","updated_at":"2026-03-04 05:31:52.46+00"},{"id":354,"name":"Ngnith","departement_id":31,"code":null,"lat":16.4833,"lon":-15.5333,"elevation":11,"created_at":"2026-03-04 05:31:52.553+00","updated_at":"2026-03-04 05:31:52.553+00"},{"id":355,"name":"Richard Toll","departement_id":31,"code":null,"lat":16.4667,"lon":-15.7,"elevation":7,"created_at":"2026-03-04 05:31:52.644+00","updated_at":"2026-03-04 05:31:52.644+00"},{"id":356,"name":"Ronkh","departement_id":31,"code":null,"lat":16.35,"lon":-15.7833,"elevation":11,"created_at":"2026-03-04 05:31:52.751+00","updated_at":"2026-03-04 05:31:52.751+00"},{"id":357,"name":"Ross Béthio","departement_id":31,"code":null,"lat":16.25,"lon":-16.1,"elevation":10,"created_at":"2026-03-04 05:31:52.843+00","updated_at":"2026-03-04 05:31:52.844+00"},{"id":358,"name":"Rosso","departement_id":31,"code":null,"lat":16.5167,"lon":-15.8167,"elevation":8,"created_at":"2026-03-04 05:31:52.939+00","updated_at":"2026-03-04 05:31:52.939+00"},{"id":359,"name":"Aere Lao","departement_id":32,"code":null,"lat":16.15,"lon":-14.5333,"elevation":43,"created_at":"2026-03-04 05:31:53.12+00","updated_at":"2026-03-04 05:31:53.12+00"},{"id":360,"name":"Bode Lao","departement_id":32,"code":null,"lat":16.2167,"lon":-14.6833,"elevation":43,"created_at":"2026-03-04 05:31:53.212+00","updated_at":"2026-03-04 05:31:53.212+00"},{"id":361,"name":"Boke Dialloube","departement_id":32,"code":null,"lat":16.0333,"lon":-14.5167,"elevation":45,"created_at":"2026-03-04 05:31:53.303+00","updated_at":"2026-03-04 05:31:53.303+00"},{"id":362,"name":"Demette","departement_id":32,"code":null,"lat":16.2833,"lon":-14.9333,"elevation":31,"created_at":"2026-03-04 05:31:53.396+00","updated_at":"2026-03-04 05:31:53.396+00"},{"id":363,"name":"Dodel","departement_id":32,"code":null,"lat":16.2,"lon":-15.0833,"elevation":40,"created_at":"2026-03-04 05:31:53.486+00","updated_at":"2026-03-04 05:31:53.487+00"},{"id":364,"name":"Doumga Lao","departement_id":32,"code":null,"lat":16.1833,"lon":-14.4333,"elevation":49,"created_at":"2026-03-04 05:31:53.575+00","updated_at":"2026-03-04 05:31:53.575+00"},{"id":365,"name":"Fanaye","departement_id":32,"code":null,"lat":16.4167,"lon":-15.1333,"elevation":26,"created_at":"2026-03-04 05:31:53.663+00","updated_at":"2026-03-04 05:31:53.663+00"},{"id":366,"name":"Galoya Toucouleur","departement_id":32,"code":null,"lat":16.1,"lon":-14.75,"elevation":46,"created_at":"2026-03-04 05:31:53.753+00","updated_at":"2026-03-04 05:31:53.753+00"},{"id":367,"name":"Gamadji Sare","departement_id":32,"code":null,"lat":16.25,"lon":-15.1667,"elevation":38,"created_at":"2026-03-04 05:31:53.843+00","updated_at":"2026-03-04 05:31:53.843+00"},{"id":368,"name":"Gollere","departement_id":32,"code":null,"lat":16.4,"lon":-14.9667,"elevation":23,"created_at":"2026-03-04 05:31:53.936+00","updated_at":"2026-03-04 05:31:53.936+00"},{"id":369,"name":"Guédé Chantier","departement_id":32,"code":null,"lat":16.2667,"lon":-14.8333,"elevation":41,"created_at":"2026-03-04 05:31:54.027+00","updated_at":"2026-03-04 05:31:54.027+00"},{"id":370,"name":"Guédé Village","departement_id":32,"code":null,"lat":16.2833,"lon":-14.8667,"elevation":38,"created_at":"2026-03-04 05:31:54.115+00","updated_at":"2026-03-04 05:31:54.115+00"},{"id":371,"name":"Madina Ndiathbé","departement_id":32,"code":null,"lat":16.05,"lon":-14.9333,"elevation":34,"created_at":"2026-03-04 05:31:54.207+00","updated_at":"2026-03-04 05:31:54.207+00"},{"id":372,"name":"Mbolo Birane","departement_id":32,"code":null,"lat":16.15,"lon":-14.8667,"elevation":43,"created_at":"2026-03-04 05:31:54.303+00","updated_at":"2026-03-04 05:31:54.303+00"},{"id":373,"name":"Mboumba","departement_id":32,"code":null,"lat":16.35,"lon":-15,"elevation":24,"created_at":"2026-03-04 05:31:54.391+00","updated_at":"2026-03-04 05:31:54.391+00"},{"id":374,"name":"Mery","departement_id":32,"code":null,"lat":16.3333,"lon":-15.2,"elevation":27,"created_at":"2026-03-04 05:31:54.48+00","updated_at":"2026-03-04 05:31:54.48+00"},{"id":375,"name":"Niandane","departement_id":32,"code":null,"lat":16.3167,"lon":-15.2833,"elevation":27,"created_at":"2026-03-04 05:31:54.571+00","updated_at":"2026-03-04 05:31:54.571+00"},{"id":376,"name":"Ndiayene Peindao","departement_id":32,"code":null,"lat":16.2833,"lon":-15.1,"elevation":37,"created_at":"2026-03-04 05:31:54.659+00","updated_at":"2026-03-04 05:31:54.659+00"},{"id":377,"name":"Ndioum","departement_id":32,"code":null,"lat":16.3667,"lon":-14.65,"elevation":21,"created_at":"2026-03-04 05:31:54.753+00","updated_at":"2026-03-04 05:31:54.753+00"},{"id":378,"name":"Podor","departement_id":32,"code":null,"lat":16.65,"lon":-14.95,"elevation":14,"created_at":"2026-03-04 05:31:54.931+00","updated_at":"2026-03-04 05:31:54.931+00"},{"id":379,"name":"Pété","departement_id":32,"code":null,"lat":16.3833,"lon":-15.0167,"elevation":40,"created_at":"2026-03-04 05:31:54.843+00","updated_at":"2026-03-04 05:31:54.843+00"},{"id":380,"name":"Walaldé","departement_id":32,"code":null,"lat":16.3,"lon":-15.35,"elevation":26,"created_at":"2026-03-04 05:31:55.02+00","updated_at":"2026-03-04 05:31:55.02+00"},{"id":381,"name":"Fass Ngom","departement_id":33,"code":null,"lat":16.0333,"lon":-16.3833,"elevation":6,"created_at":"2026-03-04 05:31:55.204+00","updated_at":"2026-03-04 05:31:55.204+00"},{"id":382,"name":"Gandon","departement_id":33,"code":null,"lat":16.05,"lon":-16.3333,"elevation":7,"created_at":"2026-03-04 05:31:55.295+00","updated_at":"2026-03-04 05:31:55.295+00"},{"id":383,"name":"Mpal","departement_id":33,"code":null,"lat":15.95,"lon":-16.3,"elevation":11,"created_at":"2026-03-04 05:31:55.383+00","updated_at":"2026-03-04 05:31:55.383+00"},{"id":384,"name":"Ndiebene Gandiole","departement_id":33,"code":null,"lat":16.0667,"lon":-16.45,"elevation":6,"created_at":"2026-03-04 05:31:55.475+00","updated_at":"2026-03-04 05:31:55.475+00"},{"id":385,"name":"Saint-Louis","departement_id":33,"code":null,"lat":16.03,"lon":-16.5,"elevation":0,"created_at":"2026-03-04 05:31:55.567+00","updated_at":"2026-03-04 05:31:55.567+00"},{"id":386,"name":"Boghal","departement_id":34,"code":null,"lat":12.9,"lon":-15.75,"elevation":12,"created_at":"2026-03-04 05:31:55.843+00","updated_at":"2026-03-04 05:31:55.843+00"},{"id":387,"name":"Bona","departement_id":34,"code":null,"lat":12.8833,"lon":-15.8333,"elevation":36,"created_at":"2026-03-04 05:31:55.935+00","updated_at":"2026-03-04 05:31:55.935+00"},{"id":388,"name":"Bounkiling","departement_id":34,"code":null,"lat":12.8833,"lon":-15.6833,"elevation":32,"created_at":"2026-03-04 05:31:56.027+00","updated_at":"2026-03-04 05:31:56.027+00"},{"id":389,"name":"Diacounda","departement_id":34,"code":null,"lat":12.9667,"lon":-15.5,"elevation":47,"created_at":"2026-03-04 05:31:56.144+00","updated_at":"2026-03-04 05:31:56.144+00"},{"id":390,"name":"Diambati","departement_id":34,"code":null,"lat":12.95,"lon":-15.6167,"elevation":28,"created_at":"2026-03-04 05:31:56.251+00","updated_at":"2026-03-04 05:31:56.251+00"},{"id":391,"name":"Diaroume","departement_id":34,"code":null,"lat":12.85,"lon":-15.7167,"elevation":33,"created_at":"2026-03-04 05:31:56.367+00","updated_at":"2026-03-04 05:31:56.367+00"},{"id":392,"name":"Djinany","departement_id":34,"code":null,"lat":12.9167,"lon":-15.5667,"elevation":18,"created_at":"2026-03-04 05:31:56.459+00","updated_at":"2026-03-04 05:31:56.459+00"},{"id":393,"name":"Faoune","departement_id":34,"code":null,"lat":12.8667,"lon":-15.8,"elevation":14,"created_at":"2026-03-04 05:31:56.551+00","updated_at":"2026-03-04 05:31:56.551+00"},{"id":394,"name":"Inor","departement_id":34,"code":null,"lat":12.9333,"lon":-15.7667,"elevation":8,"created_at":"2026-03-04 05:31:56.639+00","updated_at":"2026-03-04 05:31:56.639+00"},{"id":395,"name":"Kandion Mangana","departement_id":34,"code":null,"lat":12.9667,"lon":-15.7167,"elevation":1,"created_at":"2026-03-04 05:31:56.731+00","updated_at":"2026-03-04 05:31:56.731+00"},{"id":396,"name":"Madina Wandifa","departement_id":34,"code":null,"lat":12.9,"lon":-15.9167,"elevation":1,"created_at":"2026-03-04 05:31:56.82+00","updated_at":"2026-03-04 05:31:56.82+00"},{"id":397,"name":"Ndiamacouta","departement_id":34,"code":null,"lat":13.31548,"lon":-15.63347,"elevation":30,"created_at":null,"updated_at":null},{"id":398,"name":"Ndiamalathiel","departement_id":34,"code":null,"lat":12.8167,"lon":-15.7833,"elevation":27,"created_at":"2026-03-04 05:31:56.911+00","updated_at":"2026-03-04 05:31:56.911+00"},{"id":399,"name":"Tankon","departement_id":34,"code":null,"lat":12.95,"lon":-15.6833,"elevation":29,"created_at":"2026-03-04 05:31:57.003+00","updated_at":"2026-03-04 05:31:57.003+00"},{"id":400,"name":"Baghere","departement_id":35,"code":null,"lat":12.6833,"lon":-15.4667,"elevation":30,"created_at":"2026-03-04 05:31:57.184+00","updated_at":"2026-03-04 05:31:57.184+00"},{"id":401,"name":"Diattacounda","departement_id":35,"code":null,"lat":12.75,"lon":-15.2333,"elevation":53,"created_at":"2026-03-04 05:31:57.276+00","updated_at":"2026-03-04 05:31:57.276+00"},{"id":402,"name":"Diouboudou","departement_id":35,"code":null,"lat":12.6167,"lon":-15.3167,"elevation":35,"created_at":"2026-03-04 05:31:57.367+00","updated_at":"2026-03-04 05:31:57.367+00"},{"id":403,"name":"Djibanar","departement_id":35,"code":null,"lat":12.6667,"lon":-15.3667,"elevation":13,"created_at":"2026-03-04 05:31:57.459+00","updated_at":"2026-03-04 05:31:57.459+00"},{"id":404,"name":"Goudomp","departement_id":35,"code":null,"lat":12.5667,"lon":-15.3167,"elevation":22,"created_at":"2026-03-04 05:31:57.552+00","updated_at":"2026-03-04 05:31:57.552+00"},{"id":405,"name":"Kaour","departement_id":35,"code":null,"lat":12.5,"lon":-15.4,"elevation":42,"created_at":"2026-03-04 05:31:57.646+00","updated_at":"2026-03-04 05:31:57.646+00"},{"id":406,"name":"Karantaba","departement_id":35,"code":null,"lat":12.65,"lon":-15.5,"elevation":0,"created_at":"2026-03-04 05:31:57.738+00","updated_at":"2026-03-04 05:31:57.738+00"},{"id":407,"name":"Kolibantang","departement_id":35,"code":null,"lat":12.5833,"lon":-15.4833,"elevation":6,"created_at":"2026-03-04 05:31:57.836+00","updated_at":"2026-03-04 05:31:57.836+00"},{"id":408,"name":"Mangaroungou Santo","departement_id":35,"code":null,"lat":12.65,"lon":-15.4167,"elevation":18,"created_at":"2026-03-04 05:31:57.937+00","updated_at":"2026-03-04 05:31:57.937+00"},{"id":409,"name":"Niagha","departement_id":35,"code":null,"lat":12.55,"lon":-15.5333,"elevation":33,"created_at":"2026-03-04 05:31:58.04+00","updated_at":"2026-03-04 05:31:58.04+00"},{"id":410,"name":"Samine","departement_id":35,"code":null,"lat":12.7333,"lon":-15.2833,"elevation":51,"created_at":"2026-03-04 05:31:58.138+00","updated_at":"2026-03-04 05:31:58.138+00"},{"id":411,"name":"Simbandi Balanté","departement_id":35,"code":null,"lat":12.7,"lon":-15.3333,"elevation":39,"created_at":"2026-03-04 05:31:58.241+00","updated_at":"2026-03-04 05:31:58.241+00"},{"id":412,"name":"Simbandi Brassou","departement_id":35,"code":null,"lat":12.6833,"lon":-15.3167,"elevation":24,"created_at":"2026-03-04 05:31:58.341+00","updated_at":"2026-03-04 05:31:58.341+00"},{"id":413,"name":"Tanaff","departement_id":35,"code":null,"lat":12.7167,"lon":-15.5333,"elevation":0,"created_at":"2026-03-04 05:31:58.43+00","updated_at":"2026-03-04 05:31:58.431+00"},{"id":414,"name":"Yarang Balanté","departement_id":35,"code":null,"lat":12.6333,"lon":-15.4167,"elevation":42,"created_at":"2026-03-04 05:31:58.518+00","updated_at":"2026-03-04 05:31:58.518+00"},{"id":415,"name":"Bambaly","departement_id":36,"code":null,"lat":12.7333,"lon":-15.8167,"elevation":13,"created_at":"2026-03-04 05:31:58.704+00","updated_at":"2026-03-04 05:31:58.704+00"},{"id":416,"name":"Bemet Bidjini","departement_id":36,"code":null,"lat":12.8,"lon":-15.9333,"elevation":30,"created_at":"2026-03-04 05:31:58.795+00","updated_at":"2026-03-04 05:31:58.795+00"},{"id":417,"name":"Diannah Ba","departement_id":36,"code":null,"lat":12.75,"lon":-15.7667,"elevation":17,"created_at":"2026-03-04 05:31:58.885+00","updated_at":"2026-03-04 05:31:58.885+00"},{"id":418,"name":"Diannah Malary","departement_id":36,"code":null,"lat":12.7167,"lon":-15.75,"elevation":33,"created_at":"2026-03-04 05:31:58.983+00","updated_at":"2026-03-04 05:31:58.983+00"},{"id":419,"name":"Diendé","departement_id":36,"code":null,"lat":12.8333,"lon":-15.8833,"elevation":22,"created_at":"2026-03-04 05:31:59.075+00","updated_at":"2026-03-04 05:31:59.075+00"},{"id":420,"name":"Djibabouya","departement_id":36,"code":null,"lat":12.7667,"lon":-15.85,"elevation":26,"created_at":"2026-03-04 05:31:59.168+00","updated_at":"2026-03-04 05:31:59.168+00"},{"id":421,"name":"Djiredji","departement_id":36,"code":null,"lat":12.6833,"lon":-15.7833,"elevation":29,"created_at":"2026-03-04 05:31:59.259+00","updated_at":"2026-03-04 05:31:59.259+00"},{"id":422,"name":"Koussy","departement_id":36,"code":null,"lat":12.6,"lon":-15.5833,"elevation":4,"created_at":"2026-03-04 05:31:59.351+00","updated_at":"2026-03-04 05:31:59.351+00"},{"id":423,"name":"Marsassoum","departement_id":36,"code":null,"lat":12.8333,"lon":-15.9833,"elevation":14,"created_at":"2026-03-04 05:31:59.439+00","updated_at":"2026-03-04 05:31:59.439+00"},{"id":424,"name":"Oudoucar","departement_id":36,"code":null,"lat":12.7833,"lon":-15.8,"elevation":13,"created_at":"2026-03-04 05:31:59.526+00","updated_at":"2026-03-04 05:31:59.526+00"},{"id":425,"name":"Sakar","departement_id":36,"code":null,"lat":12.6667,"lon":-15.7167,"elevation":26,"created_at":"2026-03-04 05:31:59.615+00","updated_at":"2026-03-04 05:31:59.615+00"},{"id":426,"name":"Sama Kanta Peulh","departement_id":36,"code":null,"lat":12.8,"lon":-15.75,"elevation":24,"created_at":"2026-03-04 05:31:59.707+00","updated_at":"2026-03-04 05:31:59.707+00"},{"id":427,"name":"San Samba","departement_id":36,"code":null,"lat":12.7167,"lon":-15.9,"elevation":11,"created_at":"2026-03-04 05:31:59.802+00","updated_at":"2026-03-04 05:31:59.802+00"},{"id":428,"name":"Sédhiou","departement_id":36,"code":null,"lat":12.7083,"lon":-15.5567,"elevation":17,"created_at":"2026-03-04 05:31:59.891+00","updated_at":"2026-03-04 05:31:59.891+00"},{"id":429,"name":"Bakel","departement_id":37,"code":null,"lat":14.9,"lon":-12.4667,"elevation":28,"created_at":"2026-03-04 05:32:00.159+00","updated_at":"2026-03-04 05:32:00.159+00"},{"id":430,"name":"Ballou","departement_id":37,"code":null,"lat":15.0167,"lon":-12.3833,"elevation":45,"created_at":"2026-03-04 05:32:00.251+00","updated_at":"2026-03-04 05:32:00.251+00"},{"id":431,"name":"Bele","departement_id":37,"code":null,"lat":15.1833,"lon":-12.1333,"elevation":60,"created_at":"2026-03-04 05:32:00.343+00","updated_at":"2026-03-04 05:32:00.343+00"},{"id":432,"name":"Diawara","departement_id":37,"code":null,"lat":14.8167,"lon":-12.2833,"elevation":18,"created_at":"2026-03-04 05:32:00.436+00","updated_at":"2026-03-04 05:32:00.436+00"},{"id":433,"name":"Gabou","departement_id":37,"code":null,"lat":14.7667,"lon":-12.8167,"elevation":86,"created_at":"2026-03-04 05:32:00.53+00","updated_at":"2026-03-04 05:32:00.53+00"},{"id":434,"name":"Gathiary","departement_id":37,"code":null,"lat":14.7833,"lon":-12.5,"elevation":31,"created_at":"2026-03-04 05:32:00.619+00","updated_at":"2026-03-04 05:32:00.619+00"},{"id":435,"name":"Kidira","departement_id":37,"code":null,"lat":14.4667,"lon":-12.2167,"elevation":24,"created_at":"2026-03-04 05:32:00.708+00","updated_at":"2026-03-04 05:32:00.708+00"},{"id":436,"name":"Madina Foulbé","departement_id":37,"code":null,"lat":15.1,"lon":-12.5167,"elevation":26,"created_at":"2026-03-04 05:32:00.804+00","updated_at":"2026-03-04 05:32:00.804+00"},{"id":437,"name":"Moudery","departement_id":37,"code":null,"lat":14.8833,"lon":-12.7833,"elevation":83,"created_at":"2026-03-04 05:32:00.896+00","updated_at":"2026-03-04 05:32:00.897+00"},{"id":438,"name":"Sadatou","departement_id":37,"code":null,"lat":14.8667,"lon":-12.3833,"elevation":19,"created_at":"2026-03-04 05:32:00.995+00","updated_at":"2026-03-04 05:32:00.995+00"},{"id":439,"name":"Sinthiou Fissa","departement_id":37,"code":null,"lat":14.9167,"lon":-12.65,"elevation":53,"created_at":"2026-03-04 05:32:01.088+00","updated_at":"2026-03-04 05:32:01.088+00"},{"id":440,"name":"Toumboura","departement_id":37,"code":null,"lat":15,"lon":-12.5167,"elevation":13,"created_at":"2026-03-04 05:32:01.181+00","updated_at":"2026-03-04 05:32:01.181+00"},{"id":441,"name":"Bala","departement_id":38,"code":null,"lat":14.5333,"lon":-12.8833,"elevation":80,"created_at":"2026-03-04 05:32:01.359+00","updated_at":"2026-03-04 05:32:01.359+00"},{"id":442,"name":"Bani Israel","departement_id":38,"code":null,"lat":14.4667,"lon":-12.6667,"elevation":86,"created_at":"2026-03-04 05:32:01.452+00","updated_at":"2026-03-04 05:32:01.452+00"},{"id":443,"name":"Boutoucoufara","departement_id":38,"code":null,"lat":14.4,"lon":-13,"elevation":69,"created_at":"2026-03-04 05:32:01.544+00","updated_at":"2026-03-04 05:32:01.544+00"},{"id":444,"name":"Boynguel Bamba","departement_id":38,"code":null,"lat":14.6167,"lon":-13.0667,"elevation":79,"created_at":"2026-03-04 05:32:01.636+00","updated_at":"2026-03-04 05:32:01.636+00"},{"id":445,"name":"Dianke Makha","departement_id":38,"code":null,"lat":14.6333,"lon":-12.9333,"elevation":69,"created_at":"2026-03-04 05:32:01.728+00","updated_at":"2026-03-04 05:32:01.728+00"},{"id":446,"name":"Dougue","departement_id":38,"code":null,"lat":14.5167,"lon":-12.9167,"elevation":85,"created_at":"2026-03-04 05:32:01.82+00","updated_at":"2026-03-04 05:32:01.82+00"},{"id":447,"name":"Goudiry","departement_id":38,"code":null,"lat":14.18,"lon":-12.7167,"elevation":51,"created_at":"2026-03-04 05:32:01.912+00","updated_at":"2026-03-04 05:32:01.912+00"},{"id":448,"name":"Goumbayel","departement_id":38,"code":null,"lat":14.3333,"lon":-12.8,"elevation":88,"created_at":"2026-03-04 05:32:02.008+00","updated_at":"2026-03-04 05:32:02.008+00"},{"id":449,"name":"Koar","departement_id":38,"code":null,"lat":14.5,"lon":-12.7333,"elevation":66,"created_at":"2026-03-04 05:32:02.099+00","updated_at":"2026-03-04 05:32:02.099+00"},{"id":450,"name":"Komoti","departement_id":38,"code":null,"lat":14.3667,"lon":-13.0167,"elevation":52,"created_at":"2026-03-04 05:32:02.192+00","updated_at":"2026-03-04 05:32:02.192+00"},{"id":451,"name":"Kothiary","departement_id":38,"code":null,"lat":14.4167,"lon":-12.9667,"elevation":68,"created_at":"2026-03-04 05:32:02.284+00","updated_at":"2026-03-04 05:32:02.284+00"},{"id":452,"name":"Koulor","departement_id":38,"code":null,"lat":14.4833,"lon":-12.85,"elevation":85,"created_at":"2026-03-04 05:32:02.376+00","updated_at":"2026-03-04 05:32:02.376+00"},{"id":453,"name":"Koussan","departement_id":38,"code":null,"lat":14.3167,"lon":-12.95,"elevation":58,"created_at":"2026-03-04 05:32:02.468+00","updated_at":"2026-03-04 05:32:02.468+00"},{"id":454,"name":"Sinthiou Bocar Aly","departement_id":38,"code":null,"lat":14.5667,"lon":-12.8667,"elevation":88,"created_at":"2026-03-04 05:32:02.56+00","updated_at":"2026-03-04 05:32:02.56+00"},{"id":455,"name":"Sinthiou Mamadou Boubou","departement_id":38,"code":null,"lat":14.6,"lon":-12.9,"elevation":80,"created_at":"2026-03-04 05:32:02.656+00","updated_at":"2026-03-04 05:32:02.656+00"},{"id":456,"name":"Bamba Thialene","departement_id":39,"code":null,"lat":13.9167,"lon":-14.1167,"elevation":40,"created_at":"2026-03-04 05:32:02.844+00","updated_at":"2026-03-04 05:32:02.844+00"},{"id":457,"name":"Kahene","departement_id":39,"code":null,"lat":13.9833,"lon":-14.3333,"elevation":30,"created_at":"2026-03-04 05:32:02.938+00","updated_at":"2026-03-04 05:32:02.938+00"},{"id":458,"name":"Koumpentoum","departement_id":39,"code":null,"lat":13.9833,"lon":-14.5333,"elevation":22,"created_at":"2026-03-04 05:32:03.027+00","updated_at":"2026-03-04 05:32:03.027+00"},{"id":459,"name":"Kouthia Guaydi","departement_id":39,"code":null,"lat":13.8833,"lon":-14.1833,"elevation":37,"created_at":"2026-03-04 05:32:03.115+00","updated_at":"2026-03-04 05:32:03.115+00"},{"id":460,"name":"Kouthiaba Wolof","departement_id":39,"code":null,"lat":14.0667,"lon":-14.2167,"elevation":47,"created_at":"2026-03-04 05:32:03.209+00","updated_at":"2026-03-04 05:32:03.209+00"},{"id":461,"name":"Malem Niani","departement_id":39,"code":null,"lat":13.9,"lon":-14.35,"elevation":35,"created_at":"2026-03-04 05:32:03.301+00","updated_at":"2026-03-04 05:32:03.302+00"},{"id":462,"name":"Mereto","departement_id":39,"code":null,"lat":13.8667,"lon":-14.05,"elevation":30,"created_at":"2026-03-04 05:32:03.395+00","updated_at":"2026-03-04 05:32:03.395+00"},{"id":463,"name":"Ndame","departement_id":39,"code":null,"lat":14,"lon":-14.4833,"elevation":41,"created_at":"2026-03-04 05:32:03.485+00","updated_at":"2026-03-04 05:32:03.485+00"},{"id":464,"name":"Pass Koto","departement_id":39,"code":null,"lat":13.8167,"lon":-14.3833,"elevation":39,"created_at":"2026-03-04 05:32:03.577+00","updated_at":"2026-03-04 05:32:03.577+00"},{"id":465,"name":"Payar","departement_id":39,"code":null,"lat":14.0333,"lon":-14.25,"elevation":19,"created_at":"2026-03-04 05:32:03.669+00","updated_at":"2026-03-04 05:32:03.669+00"},{"id":466,"name":"Dialacoto","departement_id":40,"code":null,"lat":13.3,"lon":-13.4167,"elevation":44,"created_at":"2026-03-04 05:32:03.855+00","updated_at":"2026-03-04 05:32:03.855+00"},{"id":467,"name":"Koussanar","departement_id":40,"code":null,"lat":13.8667,"lon":-14.0833,"elevation":9,"created_at":"2026-03-04 05:32:03.944+00","updated_at":"2026-03-04 05:32:03.944+00"},{"id":468,"name":"Makacolibantang","departement_id":40,"code":null,"lat":13.5833,"lon":-13.7167,"elevation":38,"created_at":"2026-03-04 05:32:04.037+00","updated_at":"2026-03-04 05:32:04.037+00"},{"id":469,"name":"Missirah","departement_id":40,"code":null,"lat":14.8667,"lon":-16.0833,"elevation":36,"created_at":"2026-03-04 05:32:04.129+00","updated_at":"2026-03-04 05:32:04.129+00"},{"id":470,"name":"Ndoga Babacar","departement_id":40,"code":null,"lat":13.5333,"lon":-13.9167,"elevation":16,"created_at":"2026-03-04 05:32:04.22+00","updated_at":"2026-03-04 05:32:04.22+00"},{"id":471,"name":"Netteboulou","departement_id":40,"code":null,"lat":13.7333,"lon":-13.5167,"elevation":51,"created_at":"2026-03-04 05:32:04.308+00","updated_at":"2026-03-04 05:32:04.308+00"},{"id":472,"name":"Niani Toucouleur","departement_id":40,"code":null,"lat":13.8167,"lon":-13.9833,"elevation":17,"created_at":"2026-03-04 05:32:04.4+00","updated_at":"2026-03-04 05:32:04.401+00"},{"id":473,"name":"Sinthiou Maleme","departement_id":40,"code":null,"lat":13.6667,"lon":-13.8,"elevation":49,"created_at":"2026-03-04 05:32:04.488+00","updated_at":"2026-03-04 05:32:04.488+00"},{"id":474,"name":"Tambacounda","departement_id":40,"code":null,"lat":13.77,"lon":-13.67,"elevation":29,"created_at":"2026-03-04 05:32:04.576+00","updated_at":"2026-03-04 05:32:04.576+00"},{"id":475,"name":"Diass","departement_id":41,"code":null,"lat":14.7833,"lon":-17.0333,"elevation":24,"created_at":"2026-03-04 05:32:04.844+00","updated_at":"2026-03-04 05:32:04.844+00"},{"id":476,"name":"Fissel","departement_id":41,"code":null,"lat":14.3667,"lon":-16.6167,"elevation":10,"created_at":"2026-03-04 05:32:04.932+00","updated_at":"2026-03-04 05:32:04.932+00"},{"id":477,"name":"Joal Fadhiouth","departement_id":41,"code":null,"lat":14.16,"lon":-16.85,"elevation":0,"created_at":"2026-03-04 05:32:05.025+00","updated_at":"2026-03-04 05:32:05.025+00"},{"id":478,"name":"Malicounda","departement_id":41,"code":null,"lat":14.4167,"lon":-17,"elevation":0,"created_at":"2026-03-04 05:32:05.117+00","updated_at":"2026-03-04 05:32:05.117+00"},{"id":479,"name":"Mbour","departement_id":41,"code":null,"lat":14.3667,"lon":-16.9667,"elevation":0,"created_at":"2026-03-04 05:32:05.21+00","updated_at":"2026-03-04 05:32:05.21+00"},{"id":480,"name":"Ndiaganiao","departement_id":41,"code":null,"lat":14.5,"lon":-16.8333,"elevation":11,"created_at":"2026-03-04 05:32:05.3+00","updated_at":"2026-03-04 05:32:05.3+00"},{"id":481,"name":"Ngaparou","departement_id":41,"code":null,"lat":14.4667,"lon":-17.0167,"elevation":10,"created_at":"2026-03-04 05:32:05.392+00","updated_at":"2026-03-04 05:32:05.392+00"},{"id":482,"name":"Nguekhokh","departement_id":41,"code":null,"lat":14.55,"lon":-17,"elevation":10,"created_at":"2026-03-04 05:32:05.485+00","updated_at":"2026-03-04 05:32:05.485+00"},{"id":483,"name":"Ngueniene","departement_id":41,"code":null,"lat":14.4167,"lon":-16.8667,"elevation":11,"created_at":"2026-03-04 05:32:05.576+00","updated_at":"2026-03-04 05:32:05.576+00"},{"id":484,"name":"Popenguine","departement_id":41,"code":null,"lat":14.5167,"lon":-17.0667,"elevation":13,"created_at":"2026-03-04 05:32:05.669+00","updated_at":"2026-03-04 05:32:05.669+00"},{"id":485,"name":"Saly Portudal","departement_id":41,"code":null,"lat":14.45,"lon":-17.0167,"elevation":8,"created_at":"2026-03-04 05:32:05.761+00","updated_at":"2026-03-04 05:32:05.761+00"},{"id":486,"name":"Sandiara","departement_id":41,"code":null,"lat":14.5333,"lon":-16.7167,"elevation":15,"created_at":"2026-03-04 05:32:05.855+00","updated_at":"2026-03-04 05:32:05.855+00"},{"id":487,"name":"Sessene","departement_id":41,"code":null,"lat":14.4333,"lon":-16.6333,"elevation":15,"created_at":"2026-03-04 05:32:05.954+00","updated_at":"2026-03-04 05:32:05.954+00"},{"id":488,"name":"Sindia","departement_id":41,"code":null,"lat":14.6167,"lon":-17,"elevation":20,"created_at":"2026-03-04 05:32:06.052+00","updated_at":"2026-03-04 05:32:06.052+00"},{"id":489,"name":"Somone","departement_id":41,"code":null,"lat":14.4833,"lon":-17.0333,"elevation":12,"created_at":"2026-03-04 05:32:06.144+00","updated_at":"2026-03-04 05:32:06.144+00"},{"id":490,"name":"Thiadiaye","departement_id":41,"code":null,"lat":14.4667,"lon":-16.7,"elevation":18,"created_at":"2026-03-04 05:32:06.234+00","updated_at":"2026-03-04 05:32:06.234+00"},{"id":491,"name":"Diender","departement_id":42,"code":null,"lat":14.8333,"lon":-17.1,"elevation":22,"created_at":"2026-03-04 05:32:06.417+00","updated_at":"2026-03-04 05:32:06.417+00"},{"id":492,"name":"Fandene","departement_id":42,"code":null,"lat":14.75,"lon":-16.95,"elevation":94,"created_at":"2026-03-04 05:32:06.509+00","updated_at":"2026-03-04 05:32:06.509+00"},{"id":493,"name":"Kayar","departement_id":42,"code":null,"lat":14.9167,"lon":-17.1333,"elevation":0,"created_at":"2026-03-04 05:32:06.601+00","updated_at":"2026-03-04 05:32:06.601+00"},{"id":494,"name":"Keur Moussa","departement_id":42,"code":null,"lat":14.7333,"lon":-17,"elevation":42,"created_at":"2026-03-04 05:32:06.693+00","updated_at":"2026-03-04 05:32:06.693+00"},{"id":495,"name":"Khombole","departement_id":42,"code":null,"lat":14.7667,"lon":-16.7,"elevation":15,"created_at":"2026-03-04 05:32:06.787+00","updated_at":"2026-03-04 05:32:06.787+00"},{"id":496,"name":"Ndieyene Sirakh","departement_id":42,"code":null,"lat":14.8167,"lon":-16.8,"elevation":20,"created_at":"2026-03-04 05:32:06.877+00","updated_at":"2026-03-04 05:32:06.877+00"},{"id":497,"name":"Ngoudiane","departement_id":42,"code":null,"lat":14.8,"lon":-16.8833,"elevation":47,"created_at":"2026-03-04 05:32:06.969+00","updated_at":"2026-03-04 05:32:06.969+00"},{"id":498,"name":"Notto","departement_id":42,"code":null,"lat":14.8667,"lon":-17.05,"elevation":6,"created_at":"2026-03-04 05:32:07.061+00","updated_at":"2026-03-04 05:32:07.061+00"},{"id":499,"name":"Pout","departement_id":42,"code":null,"lat":14.7667,"lon":-17.0667,"elevation":24,"created_at":"2026-03-04 05:32:07.152+00","updated_at":"2026-03-04 05:32:07.153+00"},{"id":500,"name":"Tassete","departement_id":42,"code":null,"lat":14.7167,"lon":-17.0833,"elevation":63,"created_at":"2026-03-04 05:32:07.244+00","updated_at":"2026-03-04 05:32:07.244+00"},{"id":501,"name":"Thiénaba","departement_id":42,"code":null,"lat":14.8667,"lon":-16.8,"elevation":36,"created_at":"2026-03-04 05:32:07.338+00","updated_at":"2026-03-04 05:32:07.338+00"},{"id":502,"name":"Thiés Est","departement_id":42,"code":null,"lat":14.7833,"lon":-16.9167,"elevation":76,"created_at":"2026-03-04 05:32:07.429+00","updated_at":"2026-03-04 05:32:07.429+00"},{"id":503,"name":"Thiés Nord","departement_id":42,"code":null,"lat":14.795,"lon":-16.93,"elevation":59,"created_at":"2026-03-04 05:32:07.52+00","updated_at":"2026-03-04 05:32:07.521+00"},{"id":504,"name":"Thiés Ouest","departement_id":42,"code":null,"lat":14.79,"lon":-16.945,"elevation":76,"created_at":"2026-03-04 05:32:07.612+00","updated_at":"2026-03-04 05:32:07.612+00"},{"id":505,"name":"Touba Toul","departement_id":42,"code":null,"lat":14.9333,"lon":-16.95,"elevation":70,"created_at":"2026-03-04 05:32:07.706+00","updated_at":"2026-03-04 05:32:07.706+00"},{"id":506,"name":"Cherif Lô","departement_id":43,"code":null,"lat":15.0167,"lon":-16.8833,"elevation":54,"created_at":"2026-03-04 05:32:07.892+00","updated_at":"2026-03-04 05:32:07.892+00"},{"id":507,"name":"Darou Khoudoss","departement_id":43,"code":null,"lat":15.1,"lon":-16.8167,"elevation":30,"created_at":"2026-03-04 05:32:07.981+00","updated_at":"2026-03-04 05:32:07.981+00"},{"id":508,"name":"Koul","departement_id":43,"code":null,"lat":14.95,"lon":-16.8667,"elevation":70,"created_at":"2026-03-04 05:32:08.073+00","updated_at":"2026-03-04 05:32:08.073+00"},{"id":509,"name":"Mbayene","departement_id":43,"code":null,"lat":14.9333,"lon":-16.7667,"elevation":34,"created_at":"2026-03-04 05:32:08.165+00","updated_at":"2026-03-04 05:32:08.165+00"},{"id":510,"name":"Mboro","departement_id":43,"code":null,"lat":15.15,"lon":-16.9,"elevation":8,"created_at":"2026-03-04 05:32:08.257+00","updated_at":"2026-03-04 05:32:08.257+00"},{"id":511,"name":"Mekhe","departement_id":43,"code":null,"lat":15.0833,"lon":-16.75,"elevation":47,"created_at":"2026-03-04 05:32:08.352+00","updated_at":"2026-03-04 05:32:08.352+00"},{"id":512,"name":"Meouane","departement_id":43,"code":null,"lat":15.0833,"lon":-16.8833,"elevation":33,"created_at":"2026-03-04 05:32:08.44+00","updated_at":"2026-03-04 05:32:08.44+00"},{"id":513,"name":"Merina Dakhar","departement_id":43,"code":null,"lat":14.9833,"lon":-16.7333,"elevation":30,"created_at":"2026-03-04 05:32:08.532+00","updated_at":"2026-03-04 05:32:08.533+00"},{"id":514,"name":"Mont Rolland","departement_id":43,"code":null,"lat":14.9833,"lon":-16.95,"elevation":28,"created_at":"2026-03-04 05:32:08.624+00","updated_at":"2026-03-04 05:32:08.624+00"},{"id":515,"name":"Ngandiouf","departement_id":43,"code":null,"lat":14.9167,"lon":-16.6833,"elevation":9,"created_at":"2026-03-04 05:32:08.716+00","updated_at":"2026-03-04 05:32:08.716+00"},{"id":516,"name":"Niakhene","departement_id":43,"code":null,"lat":14.9333,"lon":-16.7167,"elevation":28,"created_at":"2026-03-04 05:32:08.805+00","updated_at":"2026-03-04 05:32:08.805+00"},{"id":517,"name":"Notto Gouye Diama","departement_id":43,"code":null,"lat":14.8667,"lon":-16.8333,"elevation":64,"created_at":"2026-03-04 05:32:08.896+00","updated_at":"2026-03-04 05:32:08.896+00"},{"id":518,"name":"Pambal","departement_id":43,"code":null,"lat":15.0167,"lon":-16.8167,"elevation":53,"created_at":"2026-03-04 05:32:08.988+00","updated_at":"2026-03-04 05:32:08.988+00"},{"id":519,"name":"Pekesse","departement_id":43,"code":null,"lat":14.9667,"lon":-16.5833,"elevation":15,"created_at":"2026-03-04 05:32:09.082+00","updated_at":"2026-03-04 05:32:09.082+00"},{"id":520,"name":"Pire Goureye","departement_id":43,"code":null,"lat":15.1,"lon":-16.7167,"elevation":49,"created_at":"2026-03-04 05:32:09.172+00","updated_at":"2026-03-04 05:32:09.172+00"},{"id":521,"name":"Taïba Ndiaye","departement_id":43,"code":null,"lat":15.05,"lon":-16.8833,"elevation":44,"created_at":"2026-03-04 05:32:09.265+00","updated_at":"2026-03-04 05:32:09.265+00"},{"id":522,"name":"Thilmakha","departement_id":43,"code":null,"lat":15.0333,"lon":-16.7167,"elevation":41,"created_at":"2026-03-04 05:32:09.358+00","updated_at":"2026-03-04 05:32:09.358+00"},{"id":523,"name":"Tivaouane","departement_id":43,"code":null,"lat":14.95,"lon":-16.8167,"elevation":50,"created_at":"2026-03-04 05:32:09.457+00","updated_at":"2026-03-04 05:32:09.457+00"},{"id":524,"name":"Balinghore","departement_id":44,"code":null,"lat":12.9333,"lon":-16.4,"elevation":17,"created_at":"2026-03-04 05:32:09.736+00","updated_at":"2026-03-04 05:32:09.736+00"},{"id":525,"name":"Bignona","departement_id":44,"code":null,"lat":12.8167,"lon":-16.2167,"elevation":8,"created_at":"2026-03-04 05:32:09.835+00","updated_at":"2026-03-04 05:32:09.835+00"},{"id":526,"name":"Coubalan","departement_id":44,"code":null,"lat":12.7667,"lon":-16.3,"elevation":11,"created_at":"2026-03-04 05:32:09.924+00","updated_at":"2026-03-04 05:32:09.924+00"},{"id":527,"name":"Diegoune","departement_id":44,"code":null,"lat":12.8833,"lon":-16.3,"elevation":25,"created_at":"2026-03-04 05:32:10.017+00","updated_at":"2026-03-04 05:32:10.017+00"},{"id":528,"name":"Diouloulou","departement_id":44,"code":null,"lat":12.85,"lon":-16.5,"elevation":13,"created_at":"2026-03-04 05:32:10.108+00","updated_at":"2026-03-04 05:32:10.108+00"},{"id":529,"name":"Djibidione","departement_id":44,"code":null,"lat":12.8167,"lon":-16.4667,"elevation":24,"created_at":"2026-03-04 05:32:10.203+00","updated_at":"2026-03-04 05:32:10.203+00"},{"id":530,"name":"Djinaky","departement_id":44,"code":null,"lat":12.7333,"lon":-16.2,"elevation":32,"created_at":"2026-03-04 05:32:10.296+00","updated_at":"2026-03-04 05:32:10.296+00"},{"id":531,"name":"Kafountine","departement_id":44,"code":null,"lat":12.7,"lon":-16.7333,"elevation":8,"created_at":"2026-03-04 05:32:10.388+00","updated_at":"2026-03-04 05:32:10.388+00"},{"id":532,"name":"Kartiack","departement_id":44,"code":null,"lat":12.7833,"lon":-16.5,"elevation":21,"created_at":"2026-03-04 05:32:10.48+00","updated_at":"2026-03-04 05:32:10.48+00"},